{"version": 0.6, "generator": "Overpass API 0.7.62.8 e802775f", "osm3s": {"timestamp_osm_base": "2025-08-26T10:03:15Z", "copyright": "The data included in this document is from www.openstreetmap.org. The data is made available under ODbL."}, "elements": [{"type": "node", "id": 347145411, "lat": 19.0517569, "lon": 72.8240813, "tags": {"addr:city": "Mumbai", "addr:postcode": "400050", "addr:street": "M Kahn Chowk", "amenity": "restaurant", "name": "Good Luck Restaurant", "opening_hours": "Mo-Su 07:00-00:00", "phone": "02226422250"}}, {"type": "node", "id": 347168988, "lat": 19.0548375, "lon": 72.8258975, "tags": {"addr:city": "Mumbai", "addr:postcode": "400050", "amenity": "restaurant", "cuisine": "chinese", "name": "Wonton House", "name:en": "Wonton House"}}, {"type": "node", "id": 703836799, "lat": 19.1226756, "lon": 72.8338442, "tags": {"amenity": "restaurant", "name": "SPCE canteen"}}, {"type": "node", "id": 745463693, "lat": 19.0717586, "lon": 72.8253808, "tags": {"amenity": "restaurant", "name": "Olive Restaurant", "source": "GPS; yahoo"}}, {"type": "node", "id": 814448755, "lat": 19.2348583, "lon": 72.8445845, "tags": {"amenity": "restaurant"}}, {"type": "node", "id": 984287758, "lat": 19.1546492, "lon": 72.8561961, "tags": {"amenity": "restaurant", "name": "Balaji Rest."}}, {"type": "node", "id": 984980715, "lat": 19.1648094, "lon": 72.8502701, "tags": {"amenity": "restaurant", "name": "Sai Veg World"}}, {"type": "node", "id": 1168330200, "lat": 19.16602, "lon": 72.8519069, "tags": {"amenity": "restaurant", "name": "Heritage"}}, {"type": "node", "id": 1169481187, "lat": 19.1633476, "lon": 72.8461207, "tags": {"amenity": "restaurant", "name": "Ratna"}}, {"type": "node", "id": 1345329170, "lat": 19.1135596, "lon": 72.8527427, "tags": {"amenity": "restaurant", "name": "Regency"}}, {"type": "node", "id": 1398698904, "lat": 19.0622302, "lon": 72.9007583, "tags": {"amenity": "restaurant", "name": "SADGURU RESTAURANT"}}, {"type": "node", "id": 1416511446, "lat": 19.2138976, "lon": 72.8407797, "tags": {"amenity": "restaurant", "brand": "Pizza Hut", "brand:wikidata": "Q191615", "brand:wikipedia": "en:Pizza Hut", "cuisine": "pizza", "name": "Pizza Hut"}}, {"type": "node", "id": 1437244163, "lat": 19.1036656, "lon": 72.826663, "tags": {"addr:housename": "Kings Apt", "addr:postcode": "400049", "addr:street": "Juhu Tara Road", "amenity": "restaurant", "contact:instagram": "maheshlunchhome_mumbai", "cuisine": "seafood", "name": "Mahesh Lunch Home", "name:en": "Mahesh Lunch Home"}}, {"type": "node", "id": 1437249360, "lat": 19.1071141, "lon": 72.8843234, "tags": {"addr:postcode": "400072", "addr:street": "Andheri Kurla Road", "amenity": "restaurant", "cuisine": "seafood", "name": "Mahesh Lunch Home"}}, {"type": "node", "id": 1514451615, "lat": 19.0748494, "lon": 72.8258483, "tags": {"addr:housename": "55c, Woodland Building", "addr:street": "Dr BR Ambedkar Road", "amenity": "restaurant", "cuisine": "south_indian,_chinese", "name": "Hotel Samudra"}}, {"type": "node", "id": 1543873995, "lat": 19.0675439, "lon": 72.9235309, "tags": {"amenity": "restaurant", "name": "Jabbar Hall", "note": "it is a marridge hall vegeterian and non vegeterian food for gest give a best faciality to gest"}}, {"type": "node", "id": 1575368240, "lat": 19.1030604, "lon": 72.8477452, "tags": {"addr:housename": "Siddhachal", "addr:postcode": "400057", "addr:street": "Hanuman Road", "amenity": "restaurant", "diet:vegetarian": "only", "name": "Same Place"}}, {"type": "node", "id": 1579243130, "lat": 19.1038461, "lon": 72.8515807, "tags": {"addr:housename": "Kadamgiri Complex Co.Op.HSG.Soc.", "addr:postcode": "400057", "addr:street": "Hanuman Road", "amenity": "restaurant", "name": "Gajali"}}, {"type": "node", "id": 1579294216, "lat": 19.1036637, "lon": 72.8523076, "tags": {"addr:housename": "Pitale Wadi", "addr:postcode": "400057", "addr:street": "Hanuman Road", "amenity": "restaurant", "diet:vegetarian": "only", "name": "Daffodils", "opening_hours": "Mo-Su 08:00-23:00"}}, {"type": "node", "id": 1579324991, "lat": 19.1036532, "lon": 72.8528496, "tags": {"addr:postcode": "400057", "addr:street": "Hanuman Road", "amenity": "restaurant", "cuisine": "indian", "name": "Hotel Shree Ganesh"}}, {"type": "node", "id": 1608381874, "lat": 19.129793, "lon": 72.9151419, "tags": {"amenity": "restaurant", "name": "Gulmohar"}}, {"type": "node", "id": 1639045726, "lat": 19.0550265, "lon": 72.8283822, "tags": {"addr:housename": "Gazebo House", "addr:housenumber": "133", "addr:postcode": "400050", "addr:street": "Hill Road", "amenity": "restaurant", "cuisine": "pizza", "name": "Ray's Cafe & Pizzeria", "website": "https://rayscafeandpizzeria.com"}}, {"type": "node", "id": 1641869868, "lat": 19.0707547, "lon": 72.8224918, "tags": {"amenity": "restaurant", "cuisine": "lebanese,_chinese,_indian", "name": "Mezbaan"}}, {"type": "node", "id": 1803681421, "lat": 19.1069056, "lon": 72.826255, "tags": {"amenity": "restaurant", "cuisine": "italian", "name": "Alfredo's", "wifi": "no"}}, {"type": "node", "id": 1855761130, "lat": 19.123761, "lon": 72.9131305, "tags": {"amenity": "restaurant", "name": "Mantra", "toilets:wheelchair": "no", "wheelchair": "limited"}}, {"type": "node", "id": 1855761135, "lat": 19.1235847, "lon": 72.912496, "tags": {"amenity": "restaurant", "brand": "Pizza Hut", "brand:wikidata": "Q191615", "cuisine": "pizza", "name": "Pizza Hut", "toilets:wheelchair": "no", "wheelchair": "no"}}, {"type": "node", "id": 1936886202, "lat": 19.23472, "lon": 72.840801, "tags": {"amenity": "restaurant", "drive_in": "no", "name": "Aura Restaurant", "smoking": "no", "wheelchair": "no", "wifi": "no"}}, {"type": "node", "id": 1939191842, "lat": 19.2311026, "lon": 72.8370479, "tags": {"addr:postcode": "400091", "addr:street": "Gorai Borivali Road", "amenity": "restaurant", "cuisine": "indian", "name": "Pangat"}}, {"type": "node", "id": 2071267071, "lat": 19.1399689, "lon": 72.8313705, "tags": {"addr:housename": "Royal Plaza", "addr:housenumber": "red Box", "addr:postcode": "400053", "addr:street": "New Link Road, Andheri West", "amenity": "restaurant", "cuisine": "chinese", "name": "Red Box", "source": "field trip"}}, {"type": "node", "id": 2071267387, "lat": 19.13986, "lon": 72.8313893, "tags": {"addr:housename": "Royal Plaza", "addr:housenumber": "Caravan Serai", "addr:postcode": "400053", "addr:street": "New Link Road, Andheri West", "amenity": "restaurant", "cuisine": "indian", "name": "Caravan Serai", "source": "field trip"}}, {"type": "node", "id": 2124836823, "lat": 19.148777, "lon": 72.8316241, "tags": {"amenity": "restaurant", "cuisine": "indian", "name": "Shreeji's"}}, {"type": "node", "id": 2125053356, "lat": 19.1412504, "lon": 72.8310858, "tags": {"amenity": "restaurant", "name": "Infinity Mall Food Court"}}, {"type": "node", "id": 2125146883, "lat": 19.1421445, "lon": 72.829096, "tags": {"addr:housename": "Link Palace", "amenity": "restaurant", "cuisine": "chinese", "name": "Delicacy Of China"}}, {"type": "node", "id": 2125146914, "lat": 19.145547, "lon": 72.8294141, "tags": {"amenity": "restaurant"}}, {"type": "node", "id": 2125326735, "lat": 19.1252302, "lon": 72.8223454, "tags": {"amenity": "restaurant", "cuisine": "asian", "name": "Nom Nom"}}, {"type": "node", "id": 2125326739, "lat": 19.125049, "lon": 72.8225121, "tags": {"addr:city": "Mumbai", "addr:housenumber": "2", "addr:postcode": "400053", "addr:street": "Balasaheb Sawant Road", "amenity": "restaurant", "cuisine": "indian", "name": "Banana Leaf", "opening_hours": "Mo-Su 09:00-21:00"}}, {"type": "node", "id": 2126250492, "lat": 19.1414769, "lon": 72.8323049, "tags": {"addr:housename": "Shalimar Morya Park", "addr:housenumber": "Shalimar Morya Park", "addr:postcode": "400053", "addr:street": "Off New Link Road", "amenity": "restaurant", "cuisine": "chinese", "name": "Mainland China"}}, {"type": "node", "id": 2148660919, "lat": 19.1343689, "lon": 72.8263899, "tags": {"addr:housenumber": "4", "addr:postcode": "400047", "addr:street": "4, Lokhandwala Complex Rd, Shastri Nagar, Andheri West", "amenity": "restaurant", "cuisine": "indian", "name": "Some Like It Hot"}}, {"type": "node", "id": 2148661125, "lat": 19.1343765, "lon": 72.8253653, "tags": {"addr:postcode": "400047", "addr:street": "SVP Nagar, Lokhandwala Complex Road, 4 Bungalows,Andheri Lokhandwala", "amenity": "restaurant", "cuisine": "indian", "name": "Goa Portuguesa", "website": "https://www.goaportuguesa.com/"}}, {"type": "node", "id": 2168803797, "lat": 19.1441796, "lon": 72.8241286, "tags": {"air_conditioning": "yes", "amenity": "restaurant", "cuisine": "indian", "diet:lacto_vegetarian": "yes", "level": "0", "name": "High Point", "name:hi": "\u0939\u093e\u0908 \u092a\u0949\u0908\u0928\u094d\u091f", "name:ma": "\u0939\u093e\u0908 \u092a\u0949\u0908\u0928\u094d\u091f", "outdoor_seating": "yes"}}, {"type": "node", "id": 2170689159, "lat": 19.1415328, "lon": 72.8299369}, {"type": "node", "id": 2170689191, "lat": 19.1413808, "lon": 72.8302561}, {"type": "node", "id": 2170689206, "lat": 19.1413657, "lon": 72.8299474}, {"type": "node", "id": 2170689216, "lat": 19.1415432, "lon": 72.8302474}, {"type": "node", "id": 2171341171, "lat": 19.0616511, "lon": 72.829063, "tags": {"addr:city": "Mumbai", "addr:housename": "Gaspar Enclave", "addr:postcode": "400050", "addr:street": "St. John Street", "addr:suburb": "Bandra", "amenity": "restaurant", "cuisine": "international", "name": "Suzette"}}, {"type": "node", "id": 2171343532, "lat": 19.0616567, "lon": 72.8291663, "tags": {"addr:housename": "Gaspar Enclave", "addr:postcode": "400050", "addr:street": "St. John Street", "amenity": "restaurant", "cuisine": "indian", "name": "Papa Pancho Da Dhaba"}}, {"type": "node", "id": 2171398723, "lat": 19.0620905, "lon": 72.8294205, "tags": {"addr:postcode": "400050", "addr:street": "Dr Ambedkar Road, Bandra West", "amenity": "restaurant", "cuisine": "indian", "name": "Pali Bhavan"}}, {"type": "node", "id": 2173092241, "lat": 19.0625682, "lon": 72.8296368, "tags": {"addr:housename": "Lourdes Haven", "addr:postcode": "400050", "addr:street": "Pali Junction, Dr BR Ambedkar Road, Bandra West", "amenity": "restaurant", "cuisine": "indian", "name": "Snack Shack"}}, {"type": "node", "id": 2173095188, "lat": 19.062482, "lon": 72.8297133, "tags": {"addr:housename": "Lourdes Haven", "addr:housenumber": "5", "addr:postcode": "400050", "addr:street": "Pali Junction, Dr BR Ambedkar Road, Bandra West", "amenity": "restaurant", "cuisine": "spanish", "name": "Poco Loco"}}, {"type": "node", "id": 2180954109, "lat": 19.0718264, "lon": 72.825446, "tags": {"amenity": "restaurant", "name": "Out of the Blue"}}, {"type": "node", "id": 2189763326, "lat": 19.1315553, "lon": 72.837364, "tags": {"amenity": "restaurant", "cuisine": "indian", "name": "The Courtyard"}}, {"type": "node", "id": 2363117996, "lat": 19.1366014, "lon": 72.8274576, "tags": {"addr:housename": "Clifton Apartment", "addr:postcode": "400053", "addr:street": "SAB TV Lane, Off New Link Road, Andheri West", "amenity": "restaurant", "cuisine": "international", "name": "Indigo Deli", "website": "http://www.degustibus.com"}}, {"type": "node", "id": 2364363843, "lat": 19.1396292, "lon": 72.826996, "tags": {"amenity": "restaurant", "cuisine": "indian", "name": "Oh Calcutta! Express"}}, {"type": "node", "id": 2365365562, "lat": 19.1394688, "lon": 72.8314681, "tags": {"addr:city": "Mumbai", "addr:housename": "Royal Classic", "addr:postcode": "400053", "addr:street": "New Link Road, Andheri West", "alt_name": "Alfredo's", "amenity": "restaurant", "cuisine": "italian", "name": "Alfredo's Bar And Diner", "wifi": "no"}}, {"type": "node", "id": 2366733541, "lat": 19.1509715, "lon": 72.8355752, "tags": {"amenity": "restaurant", "cuisine": "indian", "name": "Lucky Biryani"}}, {"type": "node", "id": 2366784005, "lat": 19.145159, "lon": 72.8294735, "tags": {"amenity": "restaurant", "cuisine": "indian", "name": "Almond Flower"}}, {"type": "node", "id": 2440075893, "lat": 19.0657165, "lon": 72.8308387, "tags": {"amenity": "restaurant", "name": "Dakshin"}}, {"type": "node", "id": 2440075895, "lat": 19.0653282, "lon": 72.8312029, "tags": {"amenity": "restaurant", "name": "Mini Punjab"}}, {"type": "node", "id": 2562637541, "lat": 19.174647, "lon": 72.8679049, "tags": {"amenity": "restaurant", "brand": "Pizza Hut", "brand:wikidata": "Q191615", "cuisine": "pizza", "name": "Pizza Hut"}}, {"type": "node", "id": 2567524743, "lat": 19.0419918, "lon": 72.9283362, "tags": {"amenity": "restaurant", "cuisine": "regional", "name": "Canteen"}}, {"type": "node", "id": 2567541050, "lat": 19.0431931, "lon": 72.9119332, "tags": {"addr:housename": "tiss", "amenity": "restaurant", "cuisine": "cafeteria", "diet:non-vegetarian": "yes", "diet:vegetarian": "yes", "name": "TISS Dining Hall", "website": "https://www.tiss.edu/view/6/OIA/Support/on-campus-facilities/"}}, {"type": "node", "id": 2590293389, "lat": 19.1254375, "lon": 72.8222001, "tags": {"addr:city": "Mumbai", "addr:housename": "Shubham Co Operative Housing Society Limited", "addr:housenumber": "Survey No 161, Government Layout No. 5", "addr:postcode": "400053", "addr:street": "Juhu Versova Link Road", "amenity": "restaurant", "cuisine": "pizza", "name": "Debonair's Pizza", "phone": "+912269431111"}}, {"type": "node", "id": 2610566163, "lat": 19.0549394, "lon": 72.8266649, "tags": {"addr:street": "Hill Road", "amenity": "restaurant", "cuisine": "chinese", "name": "House of Mandarin"}}, {"type": "node", "id": 2633884923, "lat": 19.1101036, "lon": 72.8273819, "tags": {"amenity": "restaurant", "cuisine": "chinese", "name": "Facing East", "name:en": "Facing East"}}, {"type": "node", "id": 2829079639, "lat": 19.180151, "lon": 72.8360167}, {"type": "node", "id": 2970392691, "lat": 19.0681022, "lon": 72.8264504, "tags": {"amenity": "restaurant", "cuisine": "pizza", "name": "Metro Pizza", "wifi": "no"}}, {"type": "node", "id": 3010376564, "lat": 19.1328424, "lon": 72.8123262, "tags": {"amenity": "restaurant", "cuisine": "italian", "name": "Jam Jar Diner"}}, {"type": "node", "id": 3021741492, "lat": 19.1129321, "lon": 72.8256368, "tags": {"addr:street": "Gandhi Gram Rd", "amenity": "restaurant", "cuisine": "indian", "name": "Dakshinayan", "opening_hours": "Mo-Fr 11:00-23:00; Sa, Su 08:00-23:00", "phone": "+91-26208812", "wifi": "no"}}, {"type": "node", "id": 3190127198, "lat": 19.1146924, "lon": 72.8312422, "tags": {"amenity": "restaurant", "name": "Goa Bhavan"}}, {"type": "node", "id": 3190201210, "lat": 19.1146927, "lon": 72.8363094, "tags": {"amenity": "restaurant", "name": "Tian"}}, {"type": "node", "id": 3204173570, "lat": 19.0627048, "lon": 72.9047179}, {"type": "node", "id": 3204173571, "lat": 19.0626202, "lon": 72.9046843}, {"type": "node", "id": 3204173572, "lat": 19.0626071, "lon": 72.904721}, {"type": "node", "id": 3204173573, "lat": 19.0626917, "lon": 72.9047547}, {"type": "node", "id": 3204208838, "lat": 19.0676101, "lon": 72.9208376, "tags": {"amenity": "restaurant", "name": "amina hotel"}}, {"type": "node", "id": 3204439189, "lat": 19.0636832, "lon": 72.9187511, "tags": {"amenity": "restaurant", "name": "iqbal azmi"}}, {"type": "node", "id": 3204476109, "lat": 19.0542862, "lon": 72.8932735, "tags": {"addr:city": "mumbai", "addr:postcode": "400071", "addr:street": "V N Purav Marg", "amenity": "restaurant", "brand": "Domino's", "brand:ks": "\u0688\u0648\u0645\u06cc\u0646\u0648\u0632", "brand:pa": "\u0a21\u0a4b\u0a2e\u0a40\u0a28\u0a4b\u0a1c\u0a3c", "brand:ur": "\u0688\u0648\u0645\u06cc\u0646\u0648\u0632", "brand:wikidata": "Q839466", "brand:wikipedia": "en:Domino's Pizza", "cuisine": "pizza", "name": "Domino's", "name:ks": "\u0688\u0648\u0645\u06cc\u0646\u0648\u0632", "name:pa": "\u0a21\u0a4b\u0a2e\u0a40\u0a28\u0a4b\u0a1c\u0a3c", "name:ur": "\u0688\u0648\u0645\u06cc\u0646\u0648\u0632"}}, {"type": "node", "id": 3204495277, "lat": 19.0612649, "lon": 72.9067792, "tags": {"addr:city": "MUMBAI", "addr:postcode": "400089", "addr:street": "P.L. Lokhande Marg", "amenity": "restaurant", "cuisine": "pizza", "name": "lucky restaurant"}}, {"type": "node", "id": 3204517061, "lat": 19.068838, "lon": 72.9059636, "tags": {"addr:city": "Mumbai", "addr:housenumber": "Molax Bhavan, Chheda Nagar, Chembur", "addr:postcode": "400089", "amenity": "restaurant", "capacity": "10", "cuisine": "indian", "name": "Sadguru"}}, {"type": "node", "id": 3205771060, "lat": 19.0961478, "lon": 72.9151919, "tags": {"amenity": "restaurant", "cuisine": "indian;chinese", "indoor_seating": "yes", "name": "Abhinandan", "outdoor_seating": "no"}}, {"type": "node", "id": 3205970175, "lat": 19.0492313, "lon": 72.9269816, "tags": {"addr:city": "mumbai", "amenity": "restaurant", "name": "Saidip restarant & Bar"}}, {"type": "node", "id": 3206047096, "lat": 19.0637195, "lon": 72.9170082, "tags": {"amenity": "restaurant", "name": "ram class"}}, {"type": "node", "id": 3206255569, "lat": 19.0650055, "lon": 72.929413, "tags": {"addr:city": "mumbai", "addr:housenumber": "road no12 plot no41 azad nagar shivaji nagar baiganwadi mumbai 400043", "addr:postcode": "400043", "addr:street": "90 feet road", "amenity": "restaurant", "name": "hotel", "smoking": "no"}}, {"type": "node", "id": 3207654838, "lat": 19.0557033, "lon": 72.8448243, "tags": {"amenity": "restaurant", "cuisine": "indian", "name": "Amber"}}, {"type": "node", "id": 3213757497, "lat": 19.044603, "lon": 72.9357713, "tags": {"amenity": "restaurant", "cuisine": "burger", "name": "sundar niwas"}}, {"type": "node", "id": 3213759879, "lat": 19.0600003, "lon": 72.911585, "tags": {"amenity": "restaurant", "cuisine": "pizza", "name": "jyoti restaurant", "smoking": "no"}}, {"type": "node", "id": 3213866933, "lat": 19.0485285, "lon": 72.918976, "tags": {"amenity": "restaurant", "name": "vadhavi resturant"}}, {"type": "node", "id": 3216970890, "lat": 19.0993472, "lon": 72.8737316, "tags": {"amenity": "restaurant", "name": "Shiv Sagar"}}, {"type": "node", "id": 3221689756, "lat": 19.1406806, "lon": 72.8319318, "tags": {"amenity": "restaurant", "cuisine": "indian", "name": "Pebbles"}}, {"type": "node", "id": 3221694302, "lat": 19.140888, "lon": 72.831892, "tags": {"addr:city": "Mumbai", "addr:housename": "Crystal Plaza", "addr:postcode": "400053", "addr:street": "New Link Road, Andheri West", "amenity": "restaurant", "cuisine": "indian", "name": "Kailash Parbat", "smoking": "no"}}, {"type": "node", "id": 3224720360, "lat": 19.1723812, "lon": 72.9560294, "tags": {"addr:city": "Mulund (West)", "addr:postcode": "400080", "addr:street": "Mahatma Gandhi Road", "amenity": "restaurant", "name": "Vishva Bharti Pure Veg Restaurant"}}, {"type": "node", "id": 3226297459, "lat": 19.1681057, "lon": 72.96102, "tags": {"addr:city": "Mulund (East)", "addr:postcode": "400081", "addr:street": "V B Phadke Marg", "amenity": "restaurant", "cuisine": "regional", "name": "Campus Hotel"}}, {"type": "node", "id": 3226348962, "lat": 19.1714989, "lon": 72.9580365, "tags": {"addr:city": "Mulund (East)", "addr:postcode": "400081", "addr:street": "Lokmanya Tilak Road", "amenity": "restaurant", "cuisine": "regional", "name": "Prashant Hotel"}}, {"type": "node", "id": 3229585387, "lat": 19.1706547, "lon": 72.9590081, "tags": {"addr:city": "Mulund (East)", "addr:postcode": "400081", "addr:street": "Lokmanya Tilak Road", "amenity": "restaurant", "name": "Ruchi Hotel"}}, {"type": "node", "id": 3256378819, "lat": 19.1748961, "lon": 72.9580248, "tags": {"amenity": "restaurant", "name:en": "Shubham"}}, {"type": "node", "id": 3257870640, "lat": 19.0691603, "lon": 72.8394827, "tags": {"amenity": "restaurant", "diet:vegetarian": "yes", "name": "Vrindavan"}}, {"type": "node", "id": 3289533443, "lat": 19.0796355, "lon": 72.8799871, "tags": {"amenity": "restaurant", "capacity": "50", "cuisine": "regional", "name": "Sahara", "smoking": "no"}}, {"type": "node", "id": 3289533448, "lat": 19.0805957, "lon": 72.8812014, "tags": {"amenity": "restaurant", "capacity": "50", "cuisine": "regional", "name": "Skyway", "smoking": "no"}}, {"type": "node", "id": 3289573073, "lat": 19.0747496, "lon": 72.8709793, "tags": {"amenity": "restaurant", "capacity": "50", "cuisine": "South_Indian", "name": "Hotel Ravi Pure Veg", "smoking": "no"}}, {"type": "node", "id": 3292389820, "lat": 19.1293583, "lon": 72.814132, "tags": {"amenity": "restaurant", "name": "Kinoo's Cottage"}}, {"type": "node", "id": 3358915248, "lat": 19.1095312, "lon": 72.8532985, "tags": {"amenity": "restaurant", "cuisine": "italian", "name": "Basil", "opening_hours": "Mo-Su 08:00-18:00"}}, {"type": "node", "id": 3529545078, "lat": 19.0460553, "lon": 72.9098383, "tags": {"addr:postcode": "400088", "addr:street": "Sion Trombay Road", "amenity": "restaurant", "check_date:opening_hours": "2023-06-15", "diet:vegetarian": "only", "name": "Shubalaxmi", "opening_hours": "Mo-Su,PH 09:00-23:00", "tourism": "hotel"}}, {"type": "node", "id": 3529566936, "lat": 19.0621078, "lon": 72.8769645, "tags": {"addr:city": "MUMBAI", "addr:postcode": "400070", "addr:street": "A H Wadia Marg", "amenity": "restaurant", "building": "residential", "name": "GULAM MOHHAMED SHUBRATI BUILDING;suleman usman mithiwala"}}, {"type": "node", "id": 3529577459, "lat": 19.068542, "lon": 72.9208752, "tags": {"addr:city": "MUMBAI", "addr:postcode": "400043", "addr:street": "market road", "amenity": "restaurant", "capacity": "-60", "name": "Sakil Hotel"}}, {"type": "node", "id": 3532119179, "lat": 19.0647322, "lon": 72.8823854, "tags": {"amenity": "restaurant", "name": "Sheetal Restaurant", "name:en": "Sheetal Restaurant"}}, {"type": "node", "id": 3532120654, "lat": 19.064423, "lon": 72.8818866, "tags": {"amenity": "restaurant", "name": "cafe nar restarunt"}}, {"type": "node", "id": 3532210535, "lat": 19.0630215, "lon": 72.8828264, "tags": {"amenity": "restaurant", "delivery": "yes", "diet:vegetarian": "only", "name": "sawali hotel"}}, {"type": "node", "id": 3534566632, "lat": 19.0604661, "lon": 72.8727812, "tags": {"amenity": "restaurant", "name": "Metro"}}, {"type": "node", "id": 3534647915, "lat": 19.0628452, "lon": 72.9220712, "tags": {"addr:city": "mumbai", "addr:postcode": "400043", "addr:street": "mohmmad road", "amenity": "restaurant", "capacity": "200", "cuisine": "regional", "delivery": "yes", "name": "a1 restaurant", "smoking": "no", "takeaway": "only"}}, {"type": "node", "id": 3554059493, "lat": 19.1454647, "lon": 72.9352402, "tags": {"amenity": "restaurant", "cuisine": "regional", "name": "Madras cafe"}}, {"type": "node", "id": 3585725942, "lat": 19.2053634, "lon": 72.8379964}, {"type": "node", "id": 3585725945, "lat": 19.2054201, "lon": 72.83811}, {"type": "node", "id": 3585725946, "lat": 19.2054943, "lon": 72.8379233}, {"type": "node", "id": 3585725948, "lat": 19.2055509, "lon": 72.8380369}, {"type": "node", "id": 3587156841, "lat": 19.1299442, "lon": 72.9305834, "tags": {"amenity": "restaurant", "name": "Bharang Hotel"}}, {"type": "node", "id": 3587311120, "lat": 19.2346955, "lon": 72.8409972}, {"type": "node", "id": 3587311121, "lat": 19.2346958, "lon": 72.8410654}, {"type": "node", "id": 3587311122, "lat": 19.234696, "lon": 72.8411148}, {"type": "node", "id": 3587311123, "lat": 19.2346964, "lon": 72.8411796}, {"type": "node", "id": 3587311133, "lat": 19.234737, "lon": 72.8410652}, {"type": "node", "id": 3587311134, "lat": 19.2347372, "lon": 72.8411146}, {"type": "node", "id": 3587311135, "lat": 19.2347708, "lon": 72.8409968}, {"type": "node", "id": 3587311136, "lat": 19.2347709, "lon": 72.8410272}, {"type": "node", "id": 3587311137, "lat": 19.2347773, "lon": 72.8411676}, {"type": "node", "id": 3587311138, "lat": 19.2347774, "lon": 72.8411792}, {"type": "node", "id": 3587311162, "lat": 19.2348584, "lon": 72.8409963}, {"type": "node", "id": 3587311163, "lat": 19.2348586, "lon": 72.8410267}, {"type": "node", "id": 3587311169, "lat": 19.2348676, "lon": 72.8411671}, {"type": "node", "id": 3587311170, "lat": 19.2348677, "lon": 72.841189}, {"type": "node", "id": 3587311173, "lat": 19.2348765, "lon": 72.8410567}, {"type": "node", "id": 3587311174, "lat": 19.2348768, "lon": 72.8411158}, {"type": "node", "id": 3587311180, "lat": 19.2349518, "lon": 72.8409958}, {"type": "node", "id": 3587311181, "lat": 19.2349521, "lon": 72.8410563}, {"type": "node", "id": 3587311182, "lat": 19.2349524, "lon": 72.8411154}, {"type": "node", "id": 3587311183, "lat": 19.2349528, "lon": 72.8411885}, {"type": "node", "id": 3587495959, "lat": 19.1703481, "lon": 72.8508845}, {"type": "node", "id": 3587495961, "lat": 19.1703583, "lon": 72.8508442}, {"type": "node", "id": 3587495964, "lat": 19.1703678, "lon": 72.8508065}, {"type": "node", "id": 3587495966, "lat": 19.1703785, "lon": 72.8507648}, {"type": "node", "id": 3587495969, "lat": 19.1703921, "lon": 72.8508537}, {"type": "node", "id": 3587495973, "lat": 19.1704016, "lon": 72.850816}, {"type": "node", "id": 3587495980, "lat": 19.1704336, "lon": 72.8509086}, {"type": "node", "id": 3587495983, "lat": 19.1704363, "lon": 72.8508979}, {"type": "node", "id": 3587496202, "lat": 19.1705032, "lon": 72.8509281}, {"type": "node", "id": 3587496203, "lat": 19.1705058, "lon": 72.8509175}, {"type": "node", "id": 3587496204, "lat": 19.1705089, "lon": 72.8508016}, {"type": "node", "id": 3587496215, "lat": 19.1705603, "lon": 72.8509442}, {"type": "node", "id": 3587496216, "lat": 19.1705686, "lon": 72.8505887}, {"type": "node", "id": 3587496226, "lat": 19.1706524, "lon": 72.8506152}, {"type": "node", "id": 3587703813, "lat": 19.1745416, "lon": 72.9579276}, {"type": "node", "id": 3587703817, "lat": 19.1746026, "lon": 72.9579884}, {"type": "node", "id": 3587703824, "lat": 19.1746803, "lon": 72.9577894}, {"type": "node", "id": 3587703835, "lat": 19.1747329, "lon": 72.957842}, {"type": "node", "id": 3589281097, "lat": 19.0912539, "lon": 72.8827319}, {"type": "node", "id": 3589281100, "lat": 19.0912831, "lon": 72.8825923}, {"type": "node", "id": 3589281105, "lat": 19.0914152, "lon": 72.8827715}, {"type": "node", "id": 3589281139, "lat": 19.0914434, "lon": 72.8826299}, {"type": "node", "id": 3589709138, "lat": 19.0340365, "lon": 72.9253435}, {"type": "node", "id": 3589709141, "lat": 19.0340648, "lon": 72.9248427}, {"type": "node", "id": 3589709144, "lat": 19.034253, "lon": 72.9253623}, {"type": "node", "id": 3589709145, "lat": 19.0342778, "lon": 72.9248526}, {"type": "node", "id": 3589715370, "lat": 19.1153132, "lon": 72.8602025}, {"type": "node", "id": 3589715373, "lat": 19.1154141, "lon": 72.8600747}, {"type": "node", "id": 3589715382, "lat": 19.1155185, "lon": 72.8604314}, {"type": "node", "id": 3589715387, "lat": 19.1156022, "lon": 72.8603449}, {"type": "node", "id": 3591589663, "lat": 19.1735986, "lon": 72.8713989}, {"type": "node", "id": 3591589665, "lat": 19.1736184, "lon": 72.8713214}, {"type": "node", "id": 3591589667, "lat": 19.1736283, "lon": 72.8711549}, {"type": "node", "id": 3591589668, "lat": 19.17363, "lon": 72.8712278}, {"type": "node", "id": 3591589669, "lat": 19.173722, "lon": 72.8714085}, {"type": "node", "id": 3591589670, "lat": 19.1737446, "lon": 72.8711555}, {"type": "node", "id": 3591718384, "lat": 19.1664857, "lon": 72.8540857}, {"type": "node", "id": 3591718385, "lat": 19.1664878, "lon": 72.8541693}, {"type": "node", "id": 3591718392, "lat": 19.1666813, "lon": 72.8540803}, {"type": "node", "id": 3591718393, "lat": 19.1666834, "lon": 72.8541639}, {"type": "node", "id": 3591971093, "lat": 19.0613424, "lon": 72.8998735}, {"type": "node", "id": 3591971094, "lat": 19.061347, "lon": 72.8996543}, {"type": "node", "id": 3591971097, "lat": 19.0614641, "lon": 72.8998763}, {"type": "node", "id": 3591971098, "lat": 19.0614687, "lon": 72.8996571}, {"type": "node", "id": 3592040868, "lat": 19.1716642, "lon": 72.9579884}, {"type": "node", "id": 3592040872, "lat": 19.1716709, "lon": 72.9579197}, {"type": "node", "id": 3592040877, "lat": 19.1716897, "lon": 72.9579287}, {"type": "node", "id": 3592040881, "lat": 19.1716962, "lon": 72.9580189}, {"type": "node", "id": 3592040886, "lat": 19.1717015, "lon": 72.9580063}, {"type": "node", "id": 3592040892, "lat": 19.1717108, "lon": 72.9578267}, {"type": "node", "id": 3592041293, "lat": 19.171711, "lon": 72.958026}, {"type": "node", "id": 3592041296, "lat": 19.1717217, "lon": 72.9578319}, {"type": "node", "id": 3592041310, "lat": 19.1717701, "lon": 72.9577189}, {"type": "node", "id": 3592041313, "lat": 19.1717792, "lon": 72.9578671}, {"type": "node", "id": 3592041317, "lat": 19.1717961, "lon": 72.9578752}, {"type": "node", "id": 3592041335, "lat": 19.1718472, "lon": 72.957756}, {"type": "node", "id": 3592043944, "lat": 19.0640738, "lon": 72.8940581}, {"type": "node", "id": 3592043945, "lat": 19.0641184, "lon": 72.8940211}, {"type": "node", "id": 3592043946, "lat": 19.0641289, "lon": 72.8940352}, {"type": "node", "id": 3592043947, "lat": 19.0641433, "lon": 72.8940233}, {"type": "node", "id": 3592043948, "lat": 19.0641819, "lon": 72.8941007}, {"type": "node", "id": 3592043949, "lat": 19.0641935, "lon": 72.894091}, {"type": "node", "id": 3592043950, "lat": 19.0642069, "lon": 72.8941344}, {"type": "node", "id": 3592043951, "lat": 19.0642216, "lon": 72.8941221}, {"type": "node", "id": 3592043952, "lat": 19.0642235, "lon": 72.89426}, {"type": "node", "id": 3592043953, "lat": 19.0642599, "lon": 72.8942013}, {"type": "node", "id": 3592043954, "lat": 19.0642725, "lon": 72.8941908}, {"type": "node", "id": 3592043955, "lat": 19.064273, "lon": 72.8942189}, {"type": "node", "id": 3595939168, "lat": 19.1323437, "lon": 72.9365415}, {"type": "node", "id": 3595939169, "lat": 19.1323454, "lon": 72.9363423}, {"type": "node", "id": 3595939170, "lat": 19.1324029, "lon": 72.936542}, {"type": "node", "id": 3595939171, "lat": 19.1324033, "lon": 72.9364899}, {"type": "node", "id": 3595939172, "lat": 19.1324249, "lon": 72.9364902}, {"type": "node", "id": 3595939173, "lat": 19.1324252, "lon": 72.9364592}, {"type": "node", "id": 3595939174, "lat": 19.1324441, "lon": 72.9364594}, {"type": "node", "id": 3595939175, "lat": 19.1324451, "lon": 72.9363433}, {"type": "node", "id": 3596133639, "lat": 19.174601, "lon": 72.9578608}, {"type": "node", "id": 3596133640, "lat": 19.1746094, "lon": 72.9578691}, {"type": "node", "id": 3598454264, "lat": 19.0833149, "lon": 72.8429044}, {"type": "node", "id": 3598454265, "lat": 19.0833208, "lon": 72.8427936}, {"type": "node", "id": 3598454270, "lat": 19.0834703, "lon": 72.8429137}, {"type": "node", "id": 3598454271, "lat": 19.0834762, "lon": 72.8428028}, {"type": "node", "id": 3602878176, "lat": 19.1112209, "lon": 72.9088668, "tags": {"amenity": "restaurant", "name": "Mehman Nawazi"}}, {"type": "node", "id": 3602878832, "lat": 19.1119266, "lon": 72.9087755, "tags": {"amenity": "restaurant", "name": "BREEZE RESTAURANT"}}, {"type": "node", "id": 3606640948, "lat": 19.0712279, "lon": 72.8338775, "tags": {"amenity": "restaurant", "name": "Me So Happy"}}, {"type": "node", "id": 3625141750, "lat": 19.1036157, "lon": 72.886207}, {"type": "node", "id": 3625141752, "lat": 19.1037599, "lon": 72.8859973}, {"type": "node", "id": 3625141753, "lat": 19.1037945, "lon": 72.8863446}, {"type": "node", "id": 3625141754, "lat": 19.1039386, "lon": 72.8861348}, {"type": "node", "id": 3627070970, "lat": 19.0668826, "lon": 72.8374701}, {"type": "node", "id": 3627070971, "lat": 19.0668826, "lon": 72.8375637}, {"type": "node", "id": 3627070987, "lat": 19.0669782, "lon": 72.8374701}, {"type": "node", "id": 3627070988, "lat": 19.0669782, "lon": 72.8375637}, {"type": "node", "id": 3630342040, "lat": 19.1287104, "lon": 72.8257708, "tags": {"amenity": "restaurant", "check_date": "2024-11-05", "name": "Gettogether"}}, {"type": "node", "id": 3632410897, "lat": 19.1983638, "lon": 72.8486067}, {"type": "node", "id": 3632410909, "lat": 19.1984397, "lon": 72.8483999}, {"type": "node", "id": 3632410910, "lat": 19.1984465, "lon": 72.8486407}, {"type": "node", "id": 3632410919, "lat": 19.1985223, "lon": 72.8484339}, {"type": "node", "id": 3644260072, "lat": 19.0725936, "lon": 72.8763027}, {"type": "node", "id": 3644260073, "lat": 19.0726422, "lon": 72.8759726}, {"type": "node", "id": 3644260074, "lat": 19.0726615, "lon": 72.8763139}, {"type": "node", "id": 3644260075, "lat": 19.0727102, "lon": 72.8759838}, {"type": "node", "id": 3648912541, "lat": 19.1203527, "lon": 72.8846332}, {"type": "node", "id": 3648912548, "lat": 19.1203756, "lon": 72.8844831}, {"type": "node", "id": 3648912558, "lat": 19.1204424, "lon": 72.8847771}, {"type": "node", "id": 3648912559, "lat": 19.1204633, "lon": 72.8846552}, {"type": "node", "id": 3648912562, "lat": 19.120479, "lon": 72.8845076}, {"type": "node", "id": 3648912563, "lat": 19.1204825, "lon": 72.8844085}, {"type": "node", "id": 3648912573, "lat": 19.1205792, "lon": 72.884802}, {"type": "node", "id": 3648912574, "lat": 19.1205963, "lon": 72.8846934}, {"type": "node", "id": 3648912577, "lat": 19.1206247, "lon": 72.8845452}, {"type": "node", "id": 3648912580, "lat": 19.1206369, "lon": 72.8844357}, {"type": "node", "id": 3648912601, "lat": 19.1207529, "lon": 72.884837}, {"type": "node", "id": 3648912606, "lat": 19.1207707, "lon": 72.8847242}, {"type": "node", "id": 3648912610, "lat": 19.1207915, "lon": 72.8845678}, {"type": "node", "id": 3648912613, "lat": 19.1208107, "lon": 72.8844699}, {"type": "node", "id": 3648912621, "lat": 19.1208932, "lon": 72.8848618}, {"type": "node", "id": 3648912622, "lat": 19.120911, "lon": 72.8847489}, {"type": "node", "id": 3648912626, "lat": 19.1209351, "lon": 72.8845984}, {"type": "node", "id": 3648912628, "lat": 19.120951, "lon": 72.8844947}, {"type": "node", "id": 3648912637, "lat": 19.1210114, "lon": 72.8847666}, {"type": "node", "id": 3648912638, "lat": 19.1210377, "lon": 72.8845999}, {"type": "node", "id": 3687744159, "lat": 19.1298351, "lon": 72.818126, "tags": {"amenity": "restaurant", "cuisine": "indian", "name": "Swades"}}, {"type": "node", "id": 3766892222, "lat": 19.1094692, "lon": 72.8534097, "tags": {"amenity": "restaurant", "cuisine": "indian", "name": "Sagar", "opening_hours": "Mo-Su 09:00-09:00"}}, {"type": "node", "id": 3766895231, "lat": 19.1094882, "lon": 72.8533513, "tags": {"amenity": "restaurant", "cuisine": "indian", "name": "Hotel Benarsi"}}, {"type": "node", "id": 3771463609, "lat": 19.1406213, "lon": 72.8339783, "tags": {"amenity": "restaurant", "name": "Mamagoto"}}, {"type": "node", "id": 3773905704, "lat": 19.2072751, "lon": 72.8660843, "tags": {"amenity": "restaurant", "delivery": "no", "name": "Avenue Hotel", "smoking": "outside", "takeaway": "no"}}, {"type": "node", "id": 3773909936, "lat": 19.2118884, "lon": 72.8674921, "tags": {"amenity": "restaurant", "name": "UFO revolving resturant", "takeaway": "no"}}, {"type": "node", "id": 3791147462, "lat": 19.1291201, "lon": 72.8258675, "tags": {"amenity": "restaurant", "name": "Sharma Fast Food"}}, {"type": "node", "id": 3903081147, "lat": 19.1286367, "lon": 72.8206353, "tags": {"amenity": "restaurant", "cuisine": "pizza", "name": "Pizza Box"}}, {"type": "node", "id": 3921991022, "lat": 19.1268334, "lon": 72.8217224, "tags": {"amenity": "restaurant", "name": "Urban Tadka"}}, {"type": "node", "id": 3972961045, "lat": 19.1438085, "lon": 72.842605, "tags": {"amenity": "restaurant", "name": "Sweet Corner"}}, {"type": "node", "id": 3980133295, "lat": 19.1305037, "lon": 72.8187534, "tags": {"amenity": "restaurant", "name": "Blue Park"}}, {"type": "node", "id": 3981603675, "lat": 19.1509017, "lon": 72.8314084, "tags": {"amenity": "restaurant", "name": "Loco Chino"}}, {"type": "node", "id": 3981603680, "lat": 19.1506958, "lon": 72.8313918, "tags": {"amenity": "restaurant", "cuisine": "chinese", "name": "Golden Fork"}}, {"type": "node", "id": 3981607928, "lat": 19.1514595, "lon": 72.8314591, "tags": {"amenity": "restaurant", "cuisine": "indian", "name": "Taste Of Ganges"}}, {"type": "node", "id": 3981607929, "lat": 19.1514793, "lon": 72.83148, "tags": {"amenity": "restaurant", "name": "Roti Punjab"}}, {"type": "node", "id": 3981607931, "lat": 19.1513793, "lon": 72.8318878, "tags": {"amenity": "restaurant", "name": "Maroosh"}}, {"type": "node", "id": 4051431789, "lat": 19.1290697, "lon": 72.8219944, "tags": {"amenity": "restaurant", "name": "Amritsari Tadka"}}, {"type": "node", "id": 4137656289, "lat": 19.1946767, "lon": 72.8390521, "tags": {"amenity": "restaurant", "name": "Borivali Biryani Centre"}}, {"type": "node", "id": 4137663145, "lat": 19.1951085, "lon": 72.83878, "tags": {"amenity": "restaurant", "name": "Laxmi Vilas Hindu Hotel"}}, {"type": "node", "id": 4163142690, "lat": 19.1317167, "lon": 72.8151803, "tags": {"air_conditioning": "yes", "amenity": "restaurant", "level": "0", "name": "Sathe's All Day Diner"}}, {"type": "node", "id": 4185780129, "lat": 19.063466, "lon": 72.862225, "tags": {"amenity": "restaurant", "name": "Soda Bottle Opener Wala"}}, {"type": "node", "id": 4189374777, "lat": 19.1720378, "lon": 72.95884, "tags": {"addr:city": "Mulund (East)", "addr:street": "Mahatma Phule Marg", "amenity": "restaurant", "name": "Bansuri"}}, {"type": "node", "id": 4198985391, "lat": 19.0653991, "lon": 72.8298816, "tags": {"air_conditioning": "yes", "amenity": "restaurant", "bar": "yes", "cuisine": "burger;steak_house;pizza", "name": "Smokehouse Deli", "name:en": "Smokehouse Deli", "opening_hours": "Mo-Su 09:00-00:30"}}, {"type": "node", "id": 4228622740, "lat": 19.135783, "lon": 72.9084012, "tags": {"addr:city": "Mumbai", "addr:postcode": "400076", "addr:street": "Main Gate Road", "amenity": "restaurant", "capacity": "20", "name": "Hostel-9 Canteen", "smoking": "no", "takeaway": "no"}}, {"type": "node", "id": 4233754531, "lat": 19.2279775, "lon": 72.805054, "tags": {"amenity": "restaurant"}}, {"type": "node", "id": 4233809385, "lat": 19.2286257, "lon": 72.806578, "tags": {"amenity": "restaurant"}}, {"type": "node", "id": 4237027990, "lat": 19.1351491, "lon": 72.9001151, "tags": {"amenity": "restaurant", "cuisine": "indian", "name": "Amrut "}}, {"type": "node", "id": 4238928891, "lat": 19.1117445, "lon": 72.8678155, "tags": {"addr:street": "JP Nagar Road", "amenity": "restaurant", "name": "Gopal Krishna "}}, {"type": "node", "id": 4246296886, "lat": 19.1733818, "lon": 72.9478979, "tags": {"amenity": "restaurant"}}, {"type": "node", "id": 4273389596, "lat": 19.1772051, "lon": 72.9387418, "tags": {"amenity": "restaurant", "name": "Goldenstar Banquet Hall"}}, {"type": "node", "id": 4286109595, "lat": 19.0655802, "lon": 72.8337567, "tags": {"amenity": "restaurant", "name": "Bonobo"}}, {"type": "node", "id": 4303058599, "lat": 19.0596353, "lon": 72.8324442, "tags": {"amenity": "restaurant", "cuisine": "indian;mughlai", "name": "Tavaa Restaurant"}}, {"type": "node", "id": 4312900099, "lat": 19.0551517, "lon": 72.8307261, "tags": {"amenity": "restaurant", "diet:vegetarian": "yes", "name": "Balaji Restaurant", "old_name": "Hindu Hotel", "source": "Local Knowledge"}}, {"type": "node", "id": 4323199791, "lat": 19.1779962, "lon": 72.8463789, "tags": {"addr:street": "Swami Vivekanand Road", "amenity": "restaurant", "name": "Legacy of Mumbai"}}, {"type": "node", "id": 4326441991, "lat": 19.10144, "lon": 72.8879711, "tags": {"addr:postcode": "400072", "addr:street": "90 Feet Road", "amenity": "restaurant", "cuisine": "chicken;fish;indian", "name": "Anil Lunch Home"}}, {"type": "node", "id": 4326458489, "lat": 19.0992907, "lon": 72.8878533, "tags": {"addr:street": "90 Feet Road", "amenity": "restaurant", "name": "Cafe Dilshad"}}, {"type": "node", "id": 4326867189, "lat": 19.1070575, "lon": 72.8823087, "tags": {"amenity": "restaurant", "name": "Kanchi Veg"}}, {"type": "node", "id": 4326893991, "lat": 19.1039038, "lon": 72.8869689, "tags": {"addr:city": "Mumbai", "addr:district": "Mumbai", "addr:postcode": "400072", "addr:street": "Pipeline Road", "amenity": "restaurant", "cuisine": "chicken;kebab;indian", "delivery": "yes", "diet:vegetarian": "yes", "level": "1", "name": "Deep Punjab Dhaba", "opening_hours": "Mo-Su 10:00-21:00", "reservation": "yes"}}, {"type": "node", "id": 4333491591, "lat": 19.114089, "lon": 72.887468, "tags": {"amenity": "restaurant", "name": "Eva's Pizza"}}, {"type": "node", "id": 4340814165, "lat": 19.0615863, "lon": 72.8333786, "tags": {"addr:city": "Bandra, Mumbai", "addr:postcode": "400050", "addr:street": "29th Road", "amenity": "restaurant", "cuisine": "indian", "delivery": "yes", "name": "Sigdi", "opening_hours": "11:00-01:00"}}, {"type": "node", "id": 4344894290, "lat": 19.0952234, "lon": 72.9229787, "tags": {"access": "private", "amenity": "restaurant", "name": "Hubble"}}, {"type": "node", "id": 4345456815, "lat": 19.0553221, "lon": 72.8364634, "tags": {"addr:city": "Bandra, Mumbai", "addr:postcode": "400050", "addr:street": "Jarimari Road", "amenity": "restaurant", "amenity_1": "bar", "cuisine": "indian", "name": "Deepa Bar and Restaurant"}}, {"type": "node", "id": 4351002091, "lat": 19.2115773, "lon": 72.8744759, "tags": {"addr:housenumber": "No 53, EMP 54", "addr:postcode": "400101", "addr:street": "Thakur Village", "amenity": "restaurant", "cuisine": "indian", "name": "Peetuk", "opening_hours": "Mo-Su 00:00-23:00", "phone": "9870126912", "website": "http://www.peetuk.com"}}, {"type": "node", "id": 4396299691, "lat": 19.1113344, "lon": 72.8708998, "tags": {"amenity": "restaurant", "name:en": "Apna Dhaba"}}, {"type": "node", "id": 4538233792, "lat": 19.1001262, "lon": 72.875239}, {"type": "node", "id": 4538247791, "lat": 19.0960851, "lon": 72.8741102, "tags": {"amenity": "restaurant", "brand": "Pizza Hut", "brand:wikidata": "Q191615", "cuisine": "pizza", "level": "3", "name": "Pizza Hut"}}, {"type": "node", "id": 4538265393, "lat": 19.1001264, "lon": 72.8756247}, {"type": "node", "id": 4538286289, "lat": 19.1003047, "lon": 72.875239}, {"type": "node", "id": 4538286389, "lat": 19.1003048, "lon": 72.8756247}, {"type": "node", "id": 4585386593, "lat": 19.1715424, "lon": 72.9501855, "tags": {"addr:street": "Walji Ladha Road", "amenity": "restaurant", "name:en": "Achija"}}, {"type": "node", "id": 4590509699, "lat": 19.0597451, "lon": 72.8340932, "tags": {"addr:city": "Bandra, Mumbai", "addr:postcode": "400050", "addr:street": "RK Patkar Marg (Waterfield Road)", "amenity": "restaurant", "cuisine": "chinese", "delivery": "yes", "name": "Stomach", "takeaway": "yes"}}, {"type": "node", "id": 4590912467, "lat": 19.1263675, "lon": 72.8205036, "tags": {"amenity": "restaurant", "name": "Versova Social"}}, {"type": "node", "id": 4590912468, "lat": 19.128472, "lon": 72.8172002, "tags": {"amenity": "restaurant", "name": "The Treesome Cafe"}}, {"type": "node", "id": 4592165895, "lat": 19.0648165, "lon": 72.8308323, "tags": {"addr:housenumber": "1", "addr:postcode": "400050", "addr:street": "16th Road", "amenity": "restaurant", "name": "Bombay Salad Co.", "name:en": "Bombay Salad Co."}}, {"type": "node", "id": 4621994033, "lat": 19.1293753, "lon": 72.8216756, "tags": {"amenity": "restaurant", "name": "Lee Ann's Kitchen"}}, {"type": "node", "id": 4657210592, "lat": 19.1038245, "lon": 72.8697259, "tags": {"amenity": "restaurant", "name:en": "Peshawri"}}, {"type": "node", "id": 4658634193, "lat": 19.1694974, "lon": 72.9606519, "tags": {"addr:postcode": "400081", "addr:street": "Gawde Road 2", "amenity": "restaurant", "name:en": "Shubhangi"}}, {"type": "node", "id": 4659828293, "lat": 19.0567665, "lon": 72.8469954, "tags": {"amenity": "restaurant", "cuisine": "seafood", "name:en": "Highway Gomantak"}}, {"type": "node", "id": 4672154389, "lat": 19.1079583, "lon": 72.8634424, "tags": {"addr:housenumber": "Akal A-1", "addr:postcode": "400059", "addr:street": "JB Nagar Road", "amenity": "restaurant", "cuisine": "indian", "name:en": "Nagpal Restaurant"}}, {"type": "node", "id": 4724820293, "lat": 19.1098005, "lon": 72.8755362, "tags": {"addr:postcode": "400059", "addr:street": "Mathuradas Vasanji Road (Andheri Kurla Road)", "amenity": "restaurant", "contact:instagram": "newairportrestaurant", "name": "New Airport Restaurant", "name:en": "New Airport Restaurant", "phone": "+91 22-29255552"}}, {"type": "node", "id": 4729000598, "lat": 19.1721487, "lon": 72.957232}, {"type": "node", "id": 4729000599, "lat": 19.1720799, "lon": 72.9571737}, {"type": "node", "id": 4729000600, "lat": 19.1720276, "lon": 72.9571184}, {"type": "node", "id": 4729000601, "lat": 19.1719725, "lon": 72.9571154}, {"type": "node", "id": 4729000602, "lat": 19.1719422, "lon": 72.95713}, {"type": "node", "id": 4729000603, "lat": 19.1719202, "lon": 72.957165}, {"type": "node", "id": 4729000604, "lat": 19.1718624, "lon": 72.9573136}, {"type": "node", "id": 4729000605, "lat": 19.1719642, "lon": 72.9573778}, {"type": "node", "id": 4729000606, "lat": 19.1719863, "lon": 72.9573107}, {"type": "node", "id": 4729000607, "lat": 19.1720083, "lon": 72.9572495}, {"type": "node", "id": 4729000608, "lat": 19.1720248, "lon": 72.9572291}, {"type": "node", "id": 4729000609, "lat": 19.1720992, "lon": 72.9572903}, {"type": "node", "id": 4737541126, "lat": 19.042664, "lon": 72.9157131}, {"type": "node", "id": 4737541127, "lat": 19.0426545, "lon": 72.9158577}, {"type": "node", "id": 4737541128, "lat": 19.0425314, "lon": 72.9159214}, {"type": "node", "id": 4737541129, "lat": 19.0424177, "lon": 72.9158404}, {"type": "node", "id": 4737541130, "lat": 19.0424271, "lon": 72.9156957}, {"type": "node", "id": 4737541131, "lat": 19.0425503, "lon": 72.9156321}, {"type": "node", "id": 4759553023, "lat": 19.0981963, "lon": 72.8461004, "tags": {"amenity": "restaurant", "name": "Shiv Sagar Hotel", "name:en": "Shiu Sagar"}}, {"type": "node", "id": 4760409752, "lat": 19.1670377, "lon": 72.93895, "tags": {"amenity": "restaurant", "capacity": "100", "cuisine": "italian", "name": "Shanghai Restro", "opening_hours": "24/7", "smoking": "no"}}, {"type": "node", "id": 4761353922, "lat": 19.1198364, "lon": 72.9073207, "tags": {"amenity": "restaurant", "contact:email": "MANDM@SQUAREMEALFOODS.COM", "name": "Mirchi & Mime", "name:en": "mirchi & mime", "phone": "91 5131 5161", "website": "https://mirchiandmime.com/"}}, {"type": "node", "id": 4787959723, "lat": 19.1778431, "lon": 72.951682, "tags": {"addr:postcode": "400080", "addr:street": "Shahid Mangal Pandey Rd", "amenity": "restaurant"}}, {"type": "node", "id": 4791178922, "lat": 19.1695082, "lon": 72.9589345, "tags": {"addr:postcode": "400081", "addr:street": "Gopal Krushna Gokhale Marg", "amenity": "restaurant", "name:en": "Domino's Piza"}}, {"type": "node", "id": 4869873726, "lat": 19.1680926, "lon": 72.9387885, "tags": {"amenity": "restaurant", "name": "Secret Spice", "outdoor_seating": "yes"}}, {"type": "node", "id": 4886015590, "lat": 19.2529689, "lon": 72.8490286}, {"type": "node", "id": 4886015591, "lat": 19.2529904, "lon": 72.8490045}, {"type": "node", "id": 4886015592, "lat": 19.2531221, "lon": 72.8491252}, {"type": "node", "id": 4886015593, "lat": 19.2531664, "lon": 72.8491104}, {"type": "node", "id": 4886015594, "lat": 19.2531981, "lon": 72.8490796}, {"type": "node", "id": 4886015595, "lat": 19.2532345, "lon": 72.8490093}, {"type": "node", "id": 4886015596, "lat": 19.2530753, "lon": 72.8491144}, {"type": "node", "id": 4886015597, "lat": 19.25296, "lon": 72.8489562}, {"type": "node", "id": 4886015598, "lat": 19.2531512, "lon": 72.8488516}, {"type": "node", "id": 4924405451, "lat": 19.1404949, "lon": 72.8333182, "tags": {"amenity": "restaurant", "cuisine": "italian", "name": "Off The Grid"}}, {"type": "node", "id": 4951965621, "lat": 19.1360221, "lon": 72.8355486, "tags": {"amenity": "restaurant", "brand": "Hard Rock Cafe", "brand:wikidata": "Q918151", "cuisine": "american", "internet_access": "wlan", "name": "Hard Rock Cafe", "name:en": "Hard Rock Cafe"}}, {"type": "node", "id": 4967349621, "lat": 19.1112954, "lon": 72.8586434, "tags": {"addr:street": "Cardinal Gracias Road", "amenity": "restaurant", "cuisine": "indian", "name:en": "NH-1 kitchen & bar"}}, {"type": "node", "id": 4984096521, "lat": 19.2301647, "lon": 72.84741, "tags": {"amenity": "restaurant", "cuisine": "south_indian", "name": "Simply Saraswat", "name:en": "Simply Saraswat", "wheelchair": "no"}}, {"type": "node", "id": 4992776043, "lat": 19.2204814, "lon": 72.8406478, "tags": {"amenity": "restaurant", "diet:vegetarian": "yes", "name": "Sattva"}}, {"type": "node", "id": 5019364624, "lat": 19.0609265, "lon": 72.8523096, "tags": {"amenity": "restaurant", "internet_access": "wlan", "name:en": "Garam Masala", "opening_hours": "Mo-Su 12:00-23:00"}}, {"type": "node", "id": 5221726505, "lat": 19.0558511, "lon": 72.8331336, "tags": {"amenity": "restaurant", "name": "Elco Restaurant", "phone": "+91-22-6587-7171", "website": "https://www.elcorestaurants.com/index.html"}}, {"type": "node", "id": 5221726506, "lat": 19.0642496, "lon": 72.8346675, "tags": {"amenity": "restaurant", "name": "Jai Jawan", "name:en": "Jai Jawan", "phone": "+91 22 6559 2112", "website": "https://jaijawanfoods.com/"}}, {"type": "node", "id": 5235470994, "lat": 19.0527402, "lon": 72.8312867, "tags": {"amenity": "restaurant", "cuisine": "chinese", "name": "Ice and Spice"}}, {"type": "node", "id": 5246971911, "lat": 19.049285, "lon": 72.8293764, "tags": {"addr:city": "Mumbai", "addr:housenumber": "12", "addr:postcode": "400050", "addr:street": "K C Marg", "addr:unit": "11", "amenity": "restaurant", "cuisine": "seafood", "name": "Ferry Wharf", "name:en": "Ferry Wharf", "name:hi": "\u092b\u0947\u0930\u0940 \u0935\u093e\u0930\u094d\u092b", "name:mr": "\u092b\u0947\u0930\u0940 \u0935\u093e\u0930\u094d\u092b", "opening_hours": "Mo-Su 11:00-15:30, 19:00-00:30", "phone": "022 2641 0401"}}, {"type": "node", "id": 5256637209, "lat": 19.0504944, "lon": 72.8269109}, {"type": "node", "id": 5256637210, "lat": 19.050596, "lon": 72.8270558}, {"type": "node", "id": 5256637211, "lat": 19.0505237, "lon": 72.8271079}, {"type": "node", "id": 5256637212, "lat": 19.0504329, "lon": 72.8269597}, {"type": "node", "id": 5258342084, "lat": 19.0546252, "lon": 72.8259384, "tags": {"addr:city": "Mumbai", "addr:postcode": "400050", "addr:street": "Krishna Chandra Road (Hill Road)", "amenity": "restaurant", "cuisine": "sizzler", "name": "Kobe Sizzlers"}}, {"type": "node", "id": 5268302358, "lat": 19.2085859, "lon": 72.8726559, "tags": {"amenity": "restaurant", "brand": "Pizza Hut", "brand:wikidata": "Q191615", "cuisine": "pizza", "name": "Pizza Hut", "name:hi": "\u092a\u093f\u091c\u093c\u094d\u091c\u093c\u093e \u0939\u091f", "opening_hours": "11:00 - 23:00"}}, {"type": "node", "id": 5270763675, "lat": 19.0540379, "lon": 72.8306343, "tags": {"addr:city": "Mumbai", "addr:postcode": "400050", "addr:street": "St Peter Road", "amenity": "restaurant", "cuisine": "chinese", "name": "Jimme's Kitchen"}}, {"type": "node", "id": 5273194232, "lat": 19.0592576, "lon": 72.8294753, "tags": {"addr:city": "Mumbai", "addr:postcode": "400050", "addr:street": "Manuel Gonsalves Road", "addr:unit": "3", "amenity": "restaurant", "cuisine": "chinese", "name": "Sahibaan", "phone": "022 3296 9618", "website": "https://www.sahibaan.com/"}}, {"type": "node", "id": 5273498727, "lat": 19.1117554, "lon": 72.871119, "tags": {"amenity": "restaurant", "name": "Apna dhaba"}}, {"type": "node", "id": 5277163839, "lat": 19.063215, "lon": 72.824601, "tags": {"addr:city": "Mumbai", "addr:housenumber": "29", "addr:postcode": "400050", "addr:street": "Pali Mala Road", "addr:suburb": "Bandra West", "amenity": "restaurant", "name": "New Sunrise Restaurant", "opening_hours": "Mo-Su 07:00-23:30", "outdoor_seating": "no", "phone": "+91 22 2600 0310", "smoking": "outside"}}, {"type": "node", "id": 5277423229, "lat": 19.0630814, "lon": 72.8247526, "tags": {"addr:city": "Mumbai", "addr:housenumber": "7", "addr:postcode": "400050", "addr:street": "Pali Mala Road", "addr:suburb": "Bandra West", "addr:unit": "Shop No. 8, Sefa House, A Wing", "amenity": "restaurant", "capacity": "3", "cuisine": "japanese;sushi;sushi_rolls", "name": "Yugo Sushi", "opening_hours": "Tu-Su 12:00-23:00", "outdoor_seating": "no", "phone": "+91 97692 53378", "smoking": "no", "website": "https://www.toku-enterprises.com/", "wheelchair": "no"}}, {"type": "node", "id": 5279599224, "lat": 19.1308933, "lon": 72.8707409, "tags": {"amenity": "restaurant", "name:en": "HOTEL NITYANAND"}}, {"type": "node", "id": 5282101321, "lat": 19.0979538, "lon": 72.8271261, "tags": {"amenity": "restaurant", "name": "Bora Bora"}}, {"type": "node", "id": 5293432922, "lat": 19.0623148, "lon": 72.8296604, "tags": {"addr:street": "Pali Market Road", "amenity": "restaurant", "name:en": "Lashkara"}}, {"type": "node", "id": 5313133351, "lat": 19.195632, "lon": 72.8379941, "tags": {"amenity": "restaurant", "cuisine": "Kerala", "name": "Cherry\u2019s Kitchen"}}, {"type": "node", "id": 5456840421, "lat": 19.095671, "lon": 72.9143464, "tags": {"amenity": "restaurant", "indoor_seating": "yes", "name:en": "Aripit", "outdoor_seating": "no"}}, {"type": "node", "id": 5495334229, "lat": 19.0498802, "lon": 72.9261006, "tags": {"addr:city": "Mumbai", "addr:postcode": "400043", "addr:street": "Deonar Road", "addr:suburb": "Govandi East", "amenity": "restaurant", "name": "Sai Darbar"}}, {"type": "node", "id": 5506320549, "lat": 19.0655213, "lon": 72.8616144, "tags": {"amenity": "restaurant", "description": "Pure vegetarian premium thali. First floor.", "diet:vegetarian": "only", "name": "Rajwada Thal\u2122", "opening_hours": "Mo-Su 11:00-15:30,18:30-23:00"}}, {"type": "node", "id": 5506320779, "lat": 19.0654768, "lon": 72.8616466, "tags": {"amenity": "restaurant", "contact:mobile": "+91 73032 57257", "contact:phone": "+91 22 6999 8000", "delivery": "Free home delivery", "description": "Pure vegetarian restaurant", "diet:vegetarian": "only", "name": "Kailash Sarovar"}}, {"type": "node", "id": 5584919105, "lat": 19.1362888, "lon": 72.9142729, "tags": {"amenity": "restaurant", "capacity": "50", "cuisine": "indian;chinese;chicken;ice_cream;coffee_shop", "delivery": "no", "name": "H1: Canteen", "opening_hours": "Mo-Su 13:00-15:00,18:00-03:00", "outdoor_seating": "no", "smoking": "no", "takeaway": "yes"}}, {"type": "node", "id": 5609870266, "lat": 19.2117865, "lon": 72.873412, "tags": {"addr:housenumber": "Shop no. 21, 22, 23, Evershine Millennium Paradise 50.", "amenity": "restaurant", "cuisine": "indian;chinese", "description": "Vegetarian restaurant. Provides a good ambiancefor family meals.", "diet:vegetarian": "only", "email": "info@nirvana-restaurants.com", "name": "Nirvana", "phone": "+91 22 6692 2232;+91 22 6692 2233;+91 22 6698 9777;+91 22 2885 1430"}}, {"type": "node", "id": 5627146821, "lat": 19.1026134, "lon": 72.8464811, "tags": {"addr:postcode": "400057", "addr:street": "Shraddhanand Road", "amenity": "restaurant", "cuisine": "indian;breakfast", "diet:vegetarian": "yes", "name:en": "Mi Marathi", "opening_hours": "Mo-Su 10:00-22:00"}}, {"type": "node", "id": 5641941523, "lat": 19.1733575, "lon": 72.9617602, "tags": {"amenity": "restaurant", "name:en": "China Town"}}, {"type": "node", "id": 5641953221, "lat": 19.1730372, "lon": 72.9618248, "tags": {"amenity": "restaurant", "cuisine": "chinese", "diet:vegetarian": "yes", "name:en": "China Garden"}}, {"type": "node", "id": 5643801722, "lat": 19.1717347, "lon": 72.9538932, "tags": {"amenity": "restaurant", "name:en": "Shree Tara Pure Veg"}}, {"type": "node", "id": 5646143123, "lat": 19.1718116, "lon": 72.9554083, "tags": {"amenity": "restaurant", "name:en": "Hotel Kapil"}}, {"type": "node", "id": 5760336023, "lat": 19.1784206, "lon": 72.9492695, "tags": {"amenity": "restaurant", "name:en": "Ram Punjab"}}, {"type": "node", "id": 5774562206, "lat": 19.2116603, "lon": 72.8287848, "tags": {"amenity": "restaurant", "cuisine": "kokan", "name": "Kokan Kinara"}}, {"type": "node", "id": 5778981253, "lat": 19.0598965, "lon": 72.8339617, "tags": {"amenity": "restaurant", "name:en": "Madras Diaries"}}, {"type": "node", "id": 5780857254, "lat": 19.0552504, "lon": 72.824863, "tags": {"amenity": "restaurant", "name:en": "The Village Shop"}}, {"type": "node", "id": 5859106178, "lat": 19.1624552, "lon": 72.9358108, "tags": {"addr:housenumber": "1", "addr:street": "Chaudhry Estate", "amenity": "restaurant", "name:en": "Rahat Hotel"}}, {"type": "node", "id": 5912283057, "lat": 19.0647747, "lon": 72.9223591, "tags": {"amenity": "restaurant", "name": "rehmani"}}, {"type": "node", "id": 6003278828, "lat": 19.0538594, "lon": 72.8297981, "tags": {"addr:city": "Mumbai", "addr:housenumber": "14", "addr:postcode": "400050", "addr:street": "Varoda Cross Road", "amenity": "restaurant", "cuisine": "sausage;burger;barbecue", "name": "Imbiss Meating Joint", "opening_hours": "Tu-Su 11:30-15:00,18:00-23:00", "phone": "+91 84549 46413"}}, {"type": "node", "id": 6008051485, "lat": 19.1625917, "lon": 72.9570939, "tags": {"amenity": "restaurant", "name:en": "Kelkar college canteen"}}, {"type": "node", "id": 6045710714, "lat": 19.1188274, "lon": 72.8739968, "tags": {"amenity": "restaurant", "name": "Hotel Krishna"}}, {"type": "node", "id": 6052834511, "lat": 19.161076, "lon": 72.9442565, "tags": {"amenity": "restaurant", "name:en": "Belstone"}}, {"type": "node", "id": 6100554814, "lat": 19.0614924, "lon": 72.8997348, "tags": {"addr:street": "Sharadbhau Acharya Marg", "amenity": "restaurant", "name:en": "Via Bombay"}}, {"type": "node", "id": 6115387485, "lat": 19.1157515, "lon": 72.8569935, "tags": {"addr:postcode": "400059", "addr:street": "Mathuradas Vasanji Road", "amenity": "restaurant", "cuisine": "chinese;indian", "diet:vegetarian": "yes", "name:en": "Hare Rama Hare Krishna", "opening_hours": "Mo-Su 09:00-23:00"}}, {"type": "node", "id": 6138363547, "lat": 19.2033244, "lon": 72.8430989, "tags": {"amenity": "restaurant", "cuisine": "fast_food;south_indian", "delivery": "yes", "name": "Bhagwati", "takeaway": "yes"}}, {"type": "node", "id": 6187655615, "lat": 19.0607375, "lon": 72.9003482, "tags": {"amenity": "restaurant", "cuisine": "indian;South_Indian", "name": "Geeta Bhawan", "outdoor_seating": "yes", "smoking": "no"}}, {"type": "node", "id": 6226601604, "lat": 19.0945851, "lon": 72.8981416, "tags": {"amenity": "restaurant", "name": "Jai Bhavani Restaurant"}}, {"type": "node", "id": 6233043686, "lat": 19.1163411, "lon": 72.9093398, "tags": {"addr:postcode": "400076", "addr:street": "Central Avenue", "amenity": "restaurant", "brand": "PizzaExpress", "brand:wikidata": "Q662845", "cuisine": "pizza", "name": "PizzaExpress"}}, {"type": "node", "id": 6315949386, "lat": 19.179905, "lon": 72.8467566, "tags": {"addr:street": "Swami Vivekanand Road", "amenity": "restaurant", "cuisine": "pizza", "name:en": "Domino's"}}, {"type": "node", "id": 6565133285, "lat": 19.1438494, "lon": 72.8291669, "tags": {"addr:city": "Mumbai", "addr:postcode": "400053", "addr:street": "Kavi Ram Basakhetre Road", "air_conditioning": "yes", "amenity": "restaurant", "bar": "yes", "cuisine": "indian;mexican;italian;asian;lebanese;middle_eastern;thai", "name:en": "Bennies by Flags", "opening_hours": "Mo-Su 12:00-00:00", "phone": "097694 73171", "website": "http://www.flagshospitality.com"}}, {"type": "node", "id": 6580341105, "lat": 19.0722688, "lon": 72.8703023, "tags": {"addr:city": "Mumabi", "addr:housenumber": "Pinnacle Corporate Park", "addr:postcode": "400051", "addr:street": "Kanzul Iman Road", "air_conditioning": "yes", "amenity": "restaurant", "bar": "yes", "cuisine": "mexican;italian;chinese;indian", "name": "Burn Bar and Kitchen", "opening_hours": "Mo-Su 11:30-02:30", "outdoor_seating": "no", "phone": "+919152042515 +918454880008"}}, {"type": "node", "id": 6698497690, "lat": 19.1603341, "lon": 72.9468632, "tags": {"addr:postcode": "400080", "addr:street": "Goregaon Mulund Link road", "amenity": "restaurant", "name:en": "The Secret corner cafe Mulund"}}, {"type": "node", "id": 6795338489, "lat": 19.1196048, "lon": 72.9119147, "tags": {"addr:housenumber": "188", "addr:postcode": "400076", "addr:street": "Central Avenue", "amenity": "restaurant", "cuisine": "indian;chinese", "name:en": "Juicy rasoi", "phone": "25797400"}}, {"type": "node", "id": 6795434686, "lat": 19.1165379, "lon": 72.909736, "tags": {"addr:postcode": "400076", "addr:street": "Central Avenue", "amenity": "restaurant", "cuisine": "grill", "name:en": "Sigree Global Grill above maple"}}, {"type": "node", "id": 6795446404, "lat": 19.1163867, "lon": 72.9094309, "tags": {"addr:postcode": "400076", "addr:street": "Central Avenue", "amenity": "restaurant", "brand": "Chili's", "brand:wikidata": "Q1072948", "cuisine": "tex-mex", "name": "Chili's", "name:en": "Chili\u2019s;Chili's", "official_name": "Chili's Grill & Bar"}}, {"type": "node", "id": 6795455687, "lat": 19.1168168, "lon": 72.9098224, "tags": {"addr:postcode": "400076", "addr:street": "Central Avenue", "amenity": "restaurant", "cuisine": "indian", "name:en": "The Butter Kitchen above aromas"}}, {"type": "node", "id": 6795476406, "lat": 19.1151201, "lon": 72.9072553, "tags": {"addr:street": "Central Avenue", "amenity": "restaurant", "cuisine": "indian", "name:en": "Great Punjab"}}, {"type": "node", "id": 6802082688, "lat": 19.118035, "lon": 72.9065575, "tags": {"amenity": "restaurant", "cuisine": "chinese", "description": "Chinese Restaurant and Bar", "name": "China Valley"}}, {"type": "node", "id": 6802082689, "lat": 19.1183331, "lon": 72.9063902, "tags": {"amenity": "restaurant", "description": "Family Restaurant", "name": "Utsav Restaurant"}}, {"type": "node", "id": 6804290537, "lat": 19.1272826, "lon": 72.9191817, "tags": {"amenity": "restaurant", "description": "a little inside the lane", "name": "Maddu Mess"}}, {"type": "node", "id": 6805301587, "lat": 19.116857, "lon": 72.9098143, "tags": {"addr:city": "Mumbai", "addr:district": "Powai", "addr:housenumber": "1", "addr:postcode": "400076", "addr:street": "Central Avenue", "amenity": "restaurant", "cuisine": "coffee_shop;sandwich;fish_and_chips;burger;pasta;mediterranean;lebanese;chinese;cake;brunch;italian", "diet:non-vegetarian": "yes", "diet:vegetarian": "yes", "name": "Aromas", "name:en": "Aromas", "opening_hours": "Mo-Su 09:00-21:00"}}, {"type": "node", "id": 6805304885, "lat": 19.1167488, "lon": 72.9097739, "tags": {"amenity": "restaurant", "name:en": "The Butter Kitchen"}}, {"type": "node", "id": 6805332890, "lat": 19.1160248, "lon": 72.9087522, "tags": {"amenity": "restaurant", "name:en": "Red Olives"}}, {"type": "node", "id": 6805333287, "lat": 19.1161109, "lon": 72.9088984, "tags": {"amenity": "restaurant", "name:en": "Red Olives"}}, {"type": "node", "id": 6805390986, "lat": 19.1153424, "lon": 72.9085796, "tags": {"amenity": "restaurant", "name:en": "Mainland China"}}, {"type": "node", "id": 6805447685, "lat": 19.1155586, "lon": 72.9088616, "tags": {"amenity": "restaurant", "name:en": "BusaGo"}}, {"type": "node", "id": 6805465888, "lat": 19.1151467, "lon": 72.907336, "tags": {"amenity": "restaurant", "name:en": "The Great punjab"}}, {"type": "node", "id": 6810831552, "lat": 19.1164632, "lon": 72.9094298, "tags": {"amenity": "restaurant", "cuisine": "italian;asian;grill;bistro;chinese;regional;fries", "description": "North Indian Cuisine Restaurant, on the first floor", "diet:chicken": "yes", "diet:non-vegetarian": "yes", "diet:seafood": "yes", "name": "Sigree Global Grill"}}, {"type": "node", "id": 6810831555, "lat": 19.1185114, "lon": 72.9116437, "tags": {"amenity": "restaurant", "name": "Parabola Restaurant", "opening_hours": "Mo-Su 07:00-23:30"}}, {"type": "node", "id": 6810831563, "lat": 19.1192914, "lon": 72.9115669, "tags": {"amenity": "restaurant", "description": "First Floor Galleria", "name": "Little Punjab Restaurant"}}, {"type": "node", "id": 6810831565, "lat": 19.1194409, "lon": 72.9114646, "tags": {"amenity": "restaurant", "description": "Eatery on the first floor", "name": "Charpai - The Flavour"}}, {"type": "node", "id": 6810831567, "lat": 19.1193864, "lon": 72.9113547, "tags": {"amenity": "restaurant", "description": "Eatery on the first floor", "name": "Juicy Stuff"}}, {"type": "node", "id": 6810831568, "lat": 19.1193569, "lon": 72.911298, "tags": {"amenity": "restaurant", "description": "Eatery on the first floor", "name": "China House"}}, {"type": "node", "id": 6810831570, "lat": 19.1193249, "lon": 72.9113651, "tags": {"amenity": "restaurant", "description": "Indian Cuisine, Dum Biryani, Kebabs, First Floor", "name": "Dum Matka"}}, {"type": "node", "id": 6810831571, "lat": 19.1193544, "lon": 72.9114127, "tags": {"amenity": "restaurant", "description": "Shop number 153, Galleria, First Floor", "name": "China Chilli"}}, {"type": "node", "id": 6810831572, "lat": 19.1193782, "lon": 72.9114613, "tags": {"amenity": "restaurant", "description": "First Floor", "name": "Hanglas - The Taste of Kolkata"}}, {"type": "node", "id": 6810831573, "lat": 19.1194007, "lon": 72.9114985, "tags": {"amenity": "restaurant", "description": "Chinese, Thai, Pan Asian Restaurant, First Floor", "name": "Asian Wok"}}, {"type": "node", "id": 6865999186, "lat": 19.1111181, "lon": 72.8629902, "tags": {"amenity": "restaurant", "name:en": "The Punjabi's Kitchen"}}, {"type": "node", "id": 6865999385, "lat": 19.1114309, "lon": 72.8673102, "tags": {"amenity": "restaurant", "name:en": "Kapital Kitchen Swad Dilli ka"}}, {"type": "node", "id": 7158120319, "lat": 19.13095, "lon": 72.8140272, "tags": {"amenity": "restaurant", "name": "Rodeo Pizza", "seats": "22", "tables": "6"}}, {"type": "node", "id": 7160197819, "lat": 19.1344047, "lon": 72.8261679, "tags": {"amenity": "restaurant", "cuisine": "north_indian", "level": "1", "name": "Urban Tadka"}}, {"type": "node", "id": 7180504286, "lat": 19.1263256, "lon": 72.8671598, "tags": {"amenity": "restaurant", "name:en": "caf\u00e9 coffee day", "name:nl": "caf\u00e9 coffee day"}}, {"type": "node", "id": 7283106715, "lat": 19.0987991, "lon": 72.8278271, "tags": {"air_conditioning": "yes", "amenity": "restaurant", "level": "0", "name": "Shiv Sagar", "toilets": "yes"}}, {"type": "node", "id": 7379668871, "lat": 19.2033245, "lon": 72.8595169, "tags": {"amenity": "restaurant", "name": "Growels"}}, {"type": "node", "id": 7425718019, "lat": 19.1413671, "lon": 72.8254005, "tags": {"amenity": "restaurant", "name": "Food Inn"}}, {"type": "node", "id": 7426184232, "lat": 19.1411463, "lon": 72.8248928, "tags": {"amenity": "restaurant", "cuisine": "lebanese", "name": "Lebanese Point"}}, {"type": "node", "id": 7426184239, "lat": 19.1426922, "lon": 72.8246504, "tags": {"amenity": "restaurant", "name": "Breadkraft"}}, {"type": "node", "id": 7461870685, "lat": 19.1179826, "lon": 72.9065366, "tags": {"amenity": "restaurant", "name:en": "China Valley"}}, {"type": "node", "id": 7461870785, "lat": 19.1183707, "lon": 72.9063383, "tags": {"amenity": "restaurant", "name:en": "Utsav family restaurant"}}, {"type": "node", "id": 7484275078, "lat": 19.2546418, "lon": 72.8644673, "tags": {"addr:city": "MUMBAI", "addr:postcode": "400068", "addr:street": "Anand Nagar Road", "air_conditioning": "yes", "amenity": "restaurant", "cuisine": "indian;chinese", "name": "HOTEL KALASH", "opening_hours": "Mo-Su 09:00-23:00", "takeaway": "yes"}}, {"type": "node", "id": 7765444816, "lat": 19.1616182, "lon": 72.945009, "tags": {"amenity": "restaurant", "cuisine": "indian", "name": "Rama Krishna"}}, {"type": "node", "id": 7959517664, "lat": 19.0346447, "lon": 72.9253319, "tags": {"amenity": "restaurant", "name": "NBH Canteen", "opening_hours": "PH,Su-Fr 07:00-22:00"}}, {"type": "node", "id": 8205707863, "lat": 19.2239251, "lon": 72.8413573, "tags": {"amenity": "restaurant", "name": "Ten One"}}, {"type": "node", "id": 8246707933, "lat": 19.2204966, "lon": 72.8410874, "tags": {"addr:city": "Mumbai", "addr:postcode": "400092", "amenity": "restaurant", "cuisine": "regional", "name": "Banana leaf"}}, {"type": "node", "id": 8402389407, "lat": 19.1950854, "lon": 72.8380573, "tags": {"addr:city": "Mumbai", "addr:postcode": "400064", "addr:street": "Chunilal Giridharlal Road", "air_conditioning": "yes", "amenity": "restaurant", "capacity": "20", "cuisine": "chinese;kebab;indian;thai;tandoor", "delivery": "yes", "diet:non-vegetarian": "yes", "diet:vegetarian": "yes", "name": "Local Eatery", "opening_hours": "Mo-Su 12:00-23:00", "phone": "+91 22 2807 8086;+91 22 2861 8931", "smoking": "no", "source": "local knowledge", "takeaway": "yes"}}, {"type": "node", "id": 8410995749, "lat": 19.0291863, "lon": 72.9254888}, {"type": "node", "id": 8410995750, "lat": 19.0291477, "lon": 72.9254741}, {"type": "node", "id": 8410995751, "lat": 19.0291061, "lon": 72.9254954}, {"type": "node", "id": 8410995752, "lat": 19.029103, "lon": 72.9255622}, {"type": "node", "id": 8410995753, "lat": 19.0291585, "lon": 72.9255851}, {"type": "node", "id": 8410995754, "lat": 19.0291986, "lon": 72.9255427}, {"type": "node", "id": 8413904839, "lat": 19.1973422, "lon": 72.8197171, "tags": {"addr:city": "Mumbai", "addr:postcode": "400095", "addr:street": "BAFIRA NAGAR", "air_conditioning": "yes", "amenity": "restaurant", "bar": "yes", "brewery": "yes", "capacity": "25", "cuisine": "chinese;sandwich;kebab;chicken;indian;ice_cream", "delivery": "yes", "diet:non-vegetarian": "yes", "diet:vegetarian": "yes", "name": "YOGITA  RESTAURANT", "opening_hours": "Mo-Su 12:00-23:00", "smoking": "no", "source": "local knowledge", "takeaway": "yes"}}, {"type": "node", "id": 8422041909, "lat": 19.2240617, "lon": 72.8519597, "tags": {"addr:city": "Mumbai", "addr:street": "Shimpoli Road", "amenity": "restaurant", "cuisine": "regional;pizza;sandwich;italian;chinese;indian;kebab;ice_cream;dessert", "diet:vegetarian": "yes", "name": "dwarka", "opening_hours": "Mo-Su 08:00-00:00"}}, {"type": "node", "id": 8451865085, "lat": 19.1450781, "lon": 72.8428918}, {"type": "node", "id": 8451865086, "lat": 19.1450223, "lon": 72.8428837}, {"type": "node", "id": 8451865087, "lat": 19.1450223, "lon": 72.8429803}, {"type": "node", "id": 8451865088, "lat": 19.1450755, "lon": 72.8429749}, {"type": "node", "id": 8451865089, "lat": 19.1450755, "lon": 72.8429428}, {"type": "node", "id": 8451894023, "lat": 19.2306108, "lon": 72.8471934}, {"type": "node", "id": 8451894024, "lat": 19.230624, "lon": 72.8472378}, {"type": "node", "id": 8451894025, "lat": 19.2305932, "lon": 72.8474105}, {"type": "node", "id": 8451894026, "lat": 19.2307872, "lon": 72.8475109}, {"type": "node", "id": 8451894027, "lat": 19.2308842, "lon": 72.8473055}, {"type": "node", "id": 8488565057, "lat": 19.0546767, "lon": 72.8236767, "tags": {"amenity": "restaurant"}}, {"type": "node", "id": 8727348894, "lat": 19.0770035, "lon": 72.8659697, "tags": {"amenity": "restaurant", "cuisine": "arab", "name": "Shawarma's & More"}}, {"type": "node", "id": 9019764217, "lat": 19.0460434, "lon": 72.9148183, "tags": {"amenity": "restaurant", "cuisine": "chinese;fine_dining;indian", "name": "India Bistro", "name:en": "India Bistro"}}, {"type": "node", "id": 9019764218, "lat": 19.0455769, "lon": 72.9032091, "tags": {"amenity": "restaurant", "cuisine": "pizza;italian;indian;continental", "name": "Shai Cafe and Bar"}}, {"type": "node", "id": 9019764317, "lat": 19.0463004, "lon": 72.9148868, "tags": {"amenity": "restaurant", "cuisine": "chinese;fine_dining", "name": "China Bistro", "name:en": "China Bistro"}}, {"type": "node", "id": 9023275590, "lat": 19.1207849, "lon": 72.8493033, "tags": {"amenity": "restaurant", "name": "Hotel Classic"}}, {"type": "node", "id": 9023291547, "lat": 19.1206205, "lon": 72.8487506, "tags": {"amenity": "restaurant", "name": "Ratnagiri Restaurant And Bar"}}, {"type": "node", "id": 9023297642, "lat": 19.1206806, "lon": 72.8486692, "tags": {"amenity": "restaurant", "name": "Krishna Lunch Home And Bar"}}, {"type": "node", "id": 9024157417, "lat": 19.0456916, "lon": 72.9020342, "tags": {"amenity": "restaurant", "cuisine": "indian", "name": "Sadguru Veg Diet"}}, {"type": "node", "id": 9047312125, "lat": 19.1729951, "lon": 72.9495824, "tags": {"addr:city": "Mulund(West)", "addr:housenumber": "Akshay Food Plaza", "addr:postcode": "400080", "addr:street": "Purushottam Kheraj Road", "amenity": "restaurant", "cuisine": "chinese", "diet:vegetarian": "yes", "name": "Akshay Food Plaza", "opening_hours": "Mo-Su 10:00-22:00"}}, {"type": "node", "id": 9065988146, "lat": 19.1110775, "lon": 72.8787758, "tags": {"amenity": "restaurant", "cuisine": "indian", "name": "Minks Sayaji"}}, {"type": "node", "id": 9124310961, "lat": 19.1288601, "lon": 72.816203, "tags": {"amenity": "restaurant", "name": "Pandora's Box", "wheelchair": "no"}}, {"type": "node", "id": 9128712392, "lat": 19.0821099, "lon": 72.9099078, "tags": {"addr:city": "Mumbai", "addr:postcode": "400077", "addr:street": "Hingwala Lane", "amenity": "restaurant", "cuisine": "regional;punjabi;south_indian;sandwich", "name": "Hotel Popular"}}, {"type": "node", "id": 9129210434, "lat": 19.079705, "lon": 72.9061157, "tags": {"addr:city": "Mumbai", "addr:postcode": "400077", "addr:street": "Tilak Road", "amenity": "restaurant", "name": "Gurukrupa Restaurant"}}, {"type": "node", "id": 9129210435, "lat": 19.0801689, "lon": 72.9054558, "tags": {"addr:city": "Mumbai", "addr:postcode": "400077", "amenity": "restaurant", "name": "Achija Restaurant"}}, {"type": "node", "id": 9130241611, "lat": 19.1393769, "lon": 72.8320582, "tags": {"amenity": "restaurant", "name": "The Flying Saucer"}}, {"type": "node", "id": 9132742310, "lat": 19.1440644, "lon": 72.8315177, "tags": {"amenity": "restaurant", "cuisine": "indian", "diet:vegetarian": "only", "name": "Baba Ka Dhaba"}}, {"type": "node", "id": 9134871901, "lat": 19.1320723, "lon": 72.8347455, "tags": {"amenity": "restaurant", "brand": "PizzaExpress", "brand:wikidata": "Q662845", "cuisine": "pizza", "name": "PizzaExpress", "wheelchair": "no"}}, {"type": "node", "id": 9300296366, "lat": 19.1807896, "lon": 72.9391975, "tags": {"addr:city": "Mumbai", "addr:housenumber": "L'amor, Shop no 19, Silver Birch", "addr:postcode": "400080", "addr:street": "Agrawal Rd, Opp. Sardar Pratap Singh Garden, Mulund West", "amenity": "restaurant", "cuisine": "pizza;burger;italian;sandwich;mexican;coffee_shop", "diet:jain": "yes", "diet:jain_vegetarian": "yes", "diet:vegan": "yes", "diet:vegetarian": "yes", "name": "L'amor", "name:en": "Lamor", "opening_hours": "Mo-Su 14:00-23:59", "phone": "+91 8779051286"}}, {"type": "node", "id": 9343397109, "lat": 19.1244909, "lon": 72.9368751, "tags": {"addr:housenumber": "Vikhroli", "amenity": "restaurant", "cuisine": "chinese", "diet:vegetarian": "yes", "fixme": "phone number seems wrong", "name": "Mega restaraunt", "opening_hours": "Mo-Fr 09:00-17:00", "phone": "+91 895412367"}}, {"type": "node", "id": 9359808172, "lat": 19.1070411, "lon": 72.86426, "tags": {"addr:city": "Mumbai", "addr:postcode": "400059", "addr:street": "V M Shah Marg", "amenity": "restaurant", "cuisine": "pizza;burger;sandwich;chicken;kebab", "diet:meat": "yes", "diet:vegetarian": "yes", "name": "Amar Fast Food And Juice Center", "opening_hours": "Mo-Su 10:00-24:00"}}, {"type": "node", "id": 9454549230, "lat": 19.2304479, "lon": 72.8559778, "tags": {"addr:city": "BORIVALI", "addr:housenumber": "13", "addr:postcode": "400092", "addr:street": "Chandavarkar Lane", "amenity": "restaurant", "cuisine": "coffee_shop", "diet:vegan": "yes", "name": "Lochlainn Cafe", "opening_hours": "Mo-Su 09:00-21:00", "opening_hours:covid19": "Mo-Fr 08:00-12:00"}}, {"type": "node", "id": 9738826133, "lat": 19.1747941, "lon": 72.9578827, "tags": {"amenity": "restaurant", "name": "Subham"}}, {"type": "node", "id": 9738827579, "lat": 19.1738602, "lon": 72.9578139, "tags": {"amenity": "restaurant", "name": "Atithi"}}, {"type": "node", "id": 9738837636, "lat": 19.1746779, "lon": 72.9577937, "tags": {"amenity": "restaurant", "name": "Sitara"}}, {"type": "node", "id": 9738865577, "lat": 19.1757126, "lon": 72.9522587, "tags": {"amenity": "restaurant", "name": "Sandeep"}}, {"type": "node", "id": 9738877812, "lat": 19.175382, "lon": 72.9529536, "tags": {"amenity": "restaurant", "name": "Kirti Mahal"}}, {"type": "node", "id": 9812153228, "lat": 19.2499114, "lon": 72.8479225, "tags": {"amenity": "restaurant", "name": "The Farm House"}}, {"type": "node", "id": 9812162293, "lat": 19.2497886, "lon": 72.8490222, "tags": {"addr:city": "Mumbai", "addr:housenumber": "immaculate conception junction", "addr:postcode": "400103", "addr:street": "I C Colony Cross Road No 1", "amenity": "restaurant", "cuisine": "pizza;italian;coffee_shop", "diet:meat": "yes", "diet:non-vegetarian": "yes", "internet_access": "no", "name": "Cafe Meter On"}}, {"type": "node", "id": 9812187793, "lat": 19.2490932, "lon": 72.8482061, "tags": {"amenity": "restaurant", "name": "Snack Shack"}}, {"type": "node", "id": 9828587930, "lat": 19.136663, "lon": 72.8282452, "tags": {"amenity": "restaurant", "cuisine": "Mughlai", "diet:halal": "yes", "name": "Karim\u2019s"}}, {"type": "node", "id": 9852683887, "lat": 19.2154359, "lon": 72.8387576, "tags": {"amenity": "restaurant", "name": "Zaika - The Northern Street"}}, {"type": "node", "id": 9882816180, "lat": 19.1269995, "lon": 72.8290454}, {"type": "node", "id": 9882816181, "lat": 19.1269286, "lon": 72.8290288}, {"type": "node", "id": 9882816182, "lat": 19.1269245, "lon": 72.8290481}, {"type": "node", "id": 9882816183, "lat": 19.126994, "lon": 72.8290653}, {"type": "node", "id": 9887687542, "lat": 19.1679934, "lon": 72.9610648, "tags": {"amenity": "restaurant", "name": "Campus"}}, {"type": "node", "id": 9935560217, "lat": 19.1320704, "lon": 72.9158969, "tags": {"amenity": "restaurant", "name:en": "Caf\u00e9 92"}}, {"type": "node", "id": 9938679617, "lat": 19.154177, "lon": 72.8878088, "tags": {"amenity": "restaurant"}}, {"type": "node", "id": 9941904318, "lat": 19.1358591, "lon": 72.9144751, "tags": {"amenity": "restaurant", "cuisine": "indian", "name:en": "Aroma Dhaba", "opening_hours": "Mo-Su 15:00-03:00"}}, {"type": "node", "id": 9988195817, "lat": 19.1162629, "lon": 72.9091311, "tags": {"amenity": "restaurant", "cuisine": "american", "name:en": "Independence Brewing Company", "opening_hours": "Mo-Su 11:00-01:30", "website": "https://independencebrewco.com/"}}, {"type": "node", "id": 10074934329, "lat": 19.1591153, "lon": 72.7838854, "tags": {"amenity": "restaurant", "name": "Balaji Chinese Restaurant"}}, {"type": "node", "id": 10170541266, "lat": 19.1853278, "lon": 72.9475103}, {"type": "node", "id": 10170541267, "lat": 19.1853504, "lon": 72.9475693}, {"type": "node", "id": 10170541268, "lat": 19.1852849, "lon": 72.9475839}, {"type": "node", "id": 10170541269, "lat": 19.1852389, "lon": 72.9474872}, {"type": "node", "id": 10170541270, "lat": 19.185306, "lon": 72.9474273}, {"type": "node", "id": 10170631379, "lat": 19.2436038, "lon": 72.8516575, "tags": {"amenity": "restaurant", "name": "Chotu's Kitchen"}}, {"type": "node", "id": 10170645869, "lat": 19.2447533, "lon": 72.8521214, "tags": {"amenity": "restaurant", "name": "Hotel Ashirwad"}}, {"type": "node", "id": 10170645871, "lat": 19.2448152, "lon": 72.8518372, "tags": {"amenity": "restaurant", "cuisine": "biryani", "name": "Lazeez Caterers"}}, {"type": "node", "id": 10170645872, "lat": 19.2448196, "lon": 72.851815, "tags": {"amenity": "restaurant", "cuisine": "momo", "name": "Grab Some Momos"}}, {"type": "node", "id": 10214630217, "lat": 19.1037431, "lon": 72.8861241, "tags": {"amenity": "restaurant", "cuisine": "indian", "name:en": "Chakra"}}, {"type": "node", "id": 10218172785, "lat": 19.1356062, "lon": 72.8476525, "tags": {"addr:city": "Mumbai", "addr:housenumber": "Delhi darbar", "addr:postcode": "400102", "addr:street": "Swami Vivekanand Road", "amenity": "restaurant", "cuisine": "kebab;indian;asian", "diet:halal": "yes", "diet:meat": "yes", "name": "Delhi Darbar", "opening_hours": "Mo-Su 09:00-21:00"}}, {"type": "node", "id": 10221860722, "lat": 19.0864992, "lon": 72.8309108, "tags": {"addr:postcode": "400054", "addr:street": "Juhu Tara Road", "amenity": "restaurant", "name:en": "Ajivasan Hall"}}, {"type": "node", "id": 10221860821, "lat": 19.0853517, "lon": 72.8298349, "tags": {"addr:housenumber": "7B", "addr:postcode": "400049", "addr:street": "Revdandkar Road", "amenity": "restaurant", "cuisine": "indian", "name": "Banana Leaf", "name:en": "Banana Leaf", "phone": "+918828848884"}}, {"type": "node", "id": 10230192535, "lat": 19.2498272, "lon": 72.8490219, "tags": {"addr:city": "Mumbai", "addr:housenumber": "opp immaculate conception junction", "addr:postcode": "400103", "addr:street": "I C Colony Cross Road No 1", "amenity": "restaurant", "cuisine": "pizza;italian", "diet:meat": "yes", "diet:vegetarian": "yes", "name": "cafe meter on"}}, {"type": "node", "id": 10242737041, "lat": 19.0511682, "lon": 72.8276033, "tags": {"addr:postcode": "400050", "amenity": "restaurant", "cuisine": "lebanese;chinese;mughlai;indian", "name": "Marrakesh", "name:en": "Marrakesh"}}, {"type": "node", "id": 10244133908, "lat": 19.1619793, "lon": 72.8697852}, {"type": "node", "id": 10244151409, "lat": 19.1619793, "lon": 72.8702242}, {"type": "node", "id": 10244151410, "lat": 19.1616382, "lon": 72.8702384}, {"type": "node", "id": 10244151411, "lat": 19.1616315, "lon": 72.8697781}, {"type": "node", "id": 10245266133, "lat": 19.1716956, "lon": 72.9430389, "tags": {"amenity": "restaurant", "name": "Tunak Tunak Tunn"}}, {"type": "node", "id": 10245266134, "lat": 19.1712243, "lon": 72.9433098, "tags": {"amenity": "restaurant", "name": "Achija"}}, {"type": "node", "id": 10245576497, "lat": 19.1917381, "lon": 72.8419876, "tags": {"addr:street": "Ganga Sadan, BJ Patel Rd, opposite Vodafone Store, Mumbai, Maharashtra 400064", "amenity": "restaurant", "cuisine": "indian", "name": "Rasodu - The Ethnic Kitchen", "opening_hours": "Mo-Su 11:00-15:30, 19:30-23:30", "phone": "9167916783", "price": "INR 180/plate - Normal days\nINR 250/plate - Festival Meals", "website": "https://www.swiggy.com/restaurants/rasodu-the-ethnic-kitchen-opposite-vodafone-store-malad-kan-west-mumbai-378722"}}, {"type": "node", "id": 10248901351, "lat": 19.256963, "lon": 72.7830598, "tags": {"addr:city": "Mumbai", "addr:housenumber": "S. No. 42, Plot No. F, Beach, near Sun Beach Resort, Gorai,", "addr:postcode": "400092", "addr:street": "Uttan Road", "amenity": "restaurant", "cuisine": "indian;pizza;burger;italian;chinese;sandwich;mexican", "diet:vegetarian": "yes", "name": "Sea Breeze Kitchen", "opening_hours": "Mo-Su 16:00-00:00", "phone": "+91 88790 09612"}}, {"type": "node", "id": 10249597071, "lat": 19.222063, "lon": 72.8389826, "tags": {"addr:city": "Mumbai", "addr:housenumber": "joggers park", "addr:postcode": "400092", "addr:street": "padma nagar", "amenity": "restaurant", "cuisine": "sandwich", "diet:vegetarian": "yes", "name": "baba foodin"}}, {"type": "node", "id": 10258986635, "lat": 19.1850826, "lon": 72.839717, "tags": {"amenity": "restaurant"}}, {"type": "node", "id": 10261794009, "lat": 19.0631195, "lon": 72.8487969, "tags": {"amenity": "restaurant", "name:en": "Celebration 365"}}, {"type": "node", "id": 10261794709, "lat": 19.0631245, "lon": 72.8481351, "tags": {"amenity": "restaurant", "name:en": "Krishna Restaurant"}}, {"type": "node", "id": 10262338883, "lat": 19.135665, "lon": 72.8476468, "tags": {"amenity": "restaurant"}}, {"type": "node", "id": 10301077062, "lat": 19.1769068, "lon": 72.952778, "tags": {"addr:city": "Mulund (West)", "addr:street": "Subhash Chandra Bose Road", "amenity": "restaurant", "name": "Testbuds"}}, {"type": "node", "id": 10564408634, "lat": 19.2327051, "lon": 72.8264421, "tags": {"addr:city": "Mumbai", "addr:housenumber": "gangotri", "addr:postcode": "400092", "addr:street": "Gorai Borivali Road;Lokmanya Tilak Road", "amenity": "restaurant", "cuisine": "indian;regional", "name": "humpty dumpty", "opening_hours": "11:00-24:00"}}, {"type": "node", "id": 10564440129, "lat": 19.1965209, "lon": 72.8081321}, {"type": "node", "id": 10564440130, "lat": 19.1964902, "lon": 72.8081148}, {"type": "node", "id": 10564440131, "lat": 19.1964806, "lon": 72.808189}, {"type": "node", "id": 10564440132, "lat": 19.1965171, "lon": 72.8081972}, {"type": "node", "id": 10576000695, "lat": 19.1030515, "lon": 72.8368546, "tags": {"addr:city": "Mumbai", "addr:housenumber": "chaibucks", "addr:postcode": "400056", "addr:street": "Gulmohar Road", "amenity": "restaurant", "cuisine": "coffee_shop;burger", "diet:vegetarian": "yes", "name": "chaibucks", "opening_hours": "Mo-Su 10:00-22:00"}}, {"type": "node", "id": 10576014985, "lat": 19.1248188, "lon": 72.8684932, "tags": {"addr:city": "Mumbai", "addr:housenumber": "Subhashnagar", "addr:postcode": "400093", "addr:street": "Mahakali Caves Road", "amenity": "restaurant", "cuisine": "indian", "description": "good place, best vada pav in the world", "diet:vegetarian": "yes", "name": "Shiv vada pav", "opening_hours": "Mo-Su 09:00-21:00"}}, {"type": "node", "id": 10635693972, "lat": 19.2236936, "lon": 72.8522932}, {"type": "node", "id": 10635693973, "lat": 19.2236683, "lon": 72.8523934}, {"type": "node", "id": 10635693974, "lat": 19.2236024, "lon": 72.8523701}, {"type": "node", "id": 10635693975, "lat": 19.2236446, "lon": 72.8521824}, {"type": "node", "id": 10635693976, "lat": 19.2237172, "lon": 72.8522038}, {"type": "node", "id": 10654139972, "lat": 19.2066312, "lon": 72.8438329}, {"type": "node", "id": 10654139973, "lat": 19.2066398, "lon": 72.8441942}, {"type": "node", "id": 10654139974, "lat": 19.2064304, "lon": 72.8441709}, {"type": "node", "id": 10654139975, "lat": 19.2064262, "lon": 72.8438235}, {"type": "node", "id": 10654205772, "lat": 19.2066398, "lon": 72.8438585}, {"type": "node", "id": 10654205773, "lat": 19.2064136, "lon": 72.8438185}, {"type": "node", "id": 10678500279, "lat": 19.0562679, "lon": 72.83473, "tags": {"addr:city": "Mumbai", "addr:postcode": "400050", "addr:street": "Hill Road", "amenity": "restaurant", "name": "Yoko Sizzlers", "phone": "+91 22 2640 1746"}}, {"type": "node", "id": 10682394705, "lat": 19.098961, "lon": 72.8445365, "tags": {"amenity": "restaurant", "cuisine": "indian", "name:en": "Ram Krishna"}}, {"type": "node", "id": 10711590193, "lat": 19.1287388, "lon": 72.8165433, "tags": {"amenity": "restaurant", "cuisine": "Konkani", "name": "Malwani Kalwan"}}, {"type": "node", "id": 10720953805, "lat": 19.0822752, "lon": 72.8953991, "tags": {"addr:street": "Kirol Road", "amenity": "restaurant", "name:en": "The Food Town"}}, {"type": "node", "id": 10764228112, "lat": 19.132723, "lon": 72.8124256, "tags": {"amenity": "restaurant", "cuisine": "chinese", "name": "Stomach Again"}}, {"type": "node", "id": 10771263378, "lat": 19.0971989, "lon": 72.8833512, "tags": {"amenity": "restaurant", "name": "Vaishali Family Restaurant & Bar"}}, {"type": "node", "id": 10779234835, "lat": 19.0643615, "lon": 72.8662339, "tags": {"amenity": "restaurant", "cuisine": "regional", "name": "Indian Accent"}}, {"type": "node", "id": 10779234846, "lat": 19.0608947, "lon": 72.863034, "tags": {"amenity": "restaurant", "cuisine": "pizza", "indoor_seating": "yes", "name": "CinCin", "outdoor_seating": "yes"}}, {"type": "node", "id": 10779234847, "lat": 19.0609644, "lon": 72.8628825, "tags": {"amenity": "restaurant", "cuisine": "chinese", "indoor_seating": "yes", "name": "Yauatcha", "outdoor_seating": "yes"}}, {"type": "node", "id": 10779234848, "lat": 19.0609555, "lon": 72.8627457, "tags": {"amenity": "restaurant", "cuisine": "thai", "indoor_seating": "yes", "name": "Nara Thai", "outdoor_seating": "yes"}}, {"type": "node", "id": 10779234885, "lat": 19.0695355, "lon": 72.869828, "tags": {"amenity": "restaurant", "name": "Hitchki"}}, {"type": "node", "id": 10779234895, "lat": 19.0603737, "lon": 72.8653675, "tags": {"amenity": "restaurant", "name": "Kyma"}}, {"type": "node", "id": 10779234896, "lat": 19.0603661, "lon": 72.8651664, "tags": {"amenity": "restaurant", "name": "Sequel"}}, {"type": "node", "id": 10779234899, "lat": 19.0593672, "lon": 72.8650108, "tags": {"amenity": "restaurant", "name": "Amazonia"}}, {"type": "node", "id": 10779234901, "lat": 19.0592821, "lon": 72.8650856, "tags": {"amenity": "restaurant", "cuisine": "indian", "name": "Butterfly High"}}, {"type": "node", "id": 10779234902, "lat": 19.059327, "lon": 72.8650376, "tags": {"amenity": "restaurant", "cuisine": "regional", "name": "O Pedro"}}, {"type": "node", "id": 10779234903, "lat": 19.0611165, "lon": 72.868149, "tags": {"amenity": "restaurant", "contact:instagram": "origamifinedine", "cuisine": "asian", "name": "Origami Japanese & Korean Restaurant"}}, {"type": "node", "id": 10781543267, "lat": 19.0538947, "lon": 72.8377074, "tags": {"amenity": "restaurant", "name": "Lucky", "name:en": "Lucky"}}, {"type": "node", "id": 10796770993, "lat": 19.1715861, "lon": 72.8444844, "tags": {"amenity": "restaurant", "name": "Chandak Stella"}}, {"type": "node", "id": 10828322350, "lat": 19.1000164, "lon": 72.8739181, "tags": {"amenity": "restaurant", "check_date": "2023-04-21", "level": "3", "name": "Shivsagar", "name:en": "Shivsagar", "name:mr": "\u0936\u093f\u0935\u0938\u093e\u0917\u0930", "wheelchair": "yes"}}, {"type": "node", "id": 10867684343, "lat": 19.1670385, "lon": 72.9424393, "tags": {"amenity": "restaurant", "name": "Mamta Hotel"}}, {"type": "node", "id": 10925550784, "lat": 19.141462, "lon": 72.8336248, "tags": {"amenity": "restaurant", "name": "Pop Tate's"}}, {"type": "node", "id": 11020609295, "lat": 19.128779, "lon": 72.8163637, "tags": {"amenity": "restaurant", "name": "North East Kitchen"}}, {"type": "node", "id": 11032085797, "lat": 19.1348316, "lon": 72.8137758, "tags": {"amenity": "restaurant", "cuisine": "indian", "name": "Riwayat", "phone": "+917738332277"}}, {"type": "node", "id": 11054957005, "lat": 19.0904176, "lon": 72.8270788, "tags": {"amenity": "restaurant", "cuisine": "italian", "name": "Cecconi\u2019s", "name:en": "Cecconi\u2019s"}}, {"type": "node", "id": 11069702458, "lat": 19.057386, "lon": 72.8475215, "tags": {"amenity": "restaurant", "name": "Amey"}}, {"type": "node", "id": 11069702459, "lat": 19.0573721, "lon": 72.8479721, "tags": {"access": "private", "air_conditioning": "yes", "amenity": "restaurant", "cuisine": "indian;chinese", "level": "1", "name": "Belvedere", "name:en": "Belvedere", "private": "members"}}, {"type": "node", "id": 11081366727, "lat": 19.1296711, "lon": 72.8247598, "tags": {"amenity": "restaurant", "name": "Naga Belly"}}, {"type": "node", "id": 11098485521, "lat": 19.0453834, "lon": 72.9029559, "tags": {"amenity": "restaurant", "name": "Pot Pourri"}}, {"type": "node", "id": 11182699704, "lat": 19.1067492, "lon": 72.8635393, "tags": {"addr:city": "Mumbai", "addr:district": "Mumbai", "addr:postcode": "400059", "addr:street": "j b nagar andheri east", "amenity": "restaurant", "cuisine": "coffee_shop", "diet:vegetarian": "yes", "name": "amar juice center", "phone": "1234335", "website": "www.amarjuice.com"}}, {"type": "node", "id": 11193066690, "lat": 19.1070967, "lon": 72.8642556, "tags": {"amenity": "restaurant"}}, {"type": "node", "id": 11283018639, "lat": 19.0517597, "lon": 72.9010567, "tags": {"amenity": "restaurant", "name": "Lucky Restaurant"}}, {"type": "node", "id": 11296361368, "lat": 19.062542, "lon": 72.8293871, "tags": {"amenity": "restaurant", "name": "Woodside Inn", "name:en": "Woodside Inn"}}, {"type": "node", "id": 11296371081, "lat": 19.0603008, "lon": 72.8311614, "tags": {"amenity": "restaurant", "cuisine": "tex-mex", "name": "Bombay Taco Company", "name:en": "Bombay Taco Company"}}, {"type": "node", "id": 11296371107, "lat": 19.0615782, "lon": 72.830578, "tags": {"amenity": "restaurant", "name": "The Coconut Boy", "theme": "goa"}}, {"type": "node", "id": 11296371108, "lat": 19.0616818, "lon": 72.8302955, "tags": {"amenity": "restaurant", "cuisine": "indian", "name": "Joseph's Tandoori Chicken", "name:en": "Joseph's Tandoori Chicken"}}, {"type": "node", "id": 11296371112, "lat": 19.0616694, "lon": 72.8293209, "tags": {"amenity": "restaurant", "name": "Kitchen Garden by Suzette"}}, {"type": "node", "id": 11296371116, "lat": 19.061648, "lon": 72.8289363, "tags": {"amenity": "restaurant", "name": "Project Hum", "name:en": "Project Hum"}}, {"type": "node", "id": 11296371126, "lat": 19.0606199, "lon": 72.8345481, "tags": {"amenity": "restaurant", "cuisine": "chinese", "name": "Hakkasan", "name:en": "Hakkasan", "website": "https://taogroup.com/venues/hakkasan-mumbai/"}}, {"type": "node", "id": 11296371127, "lat": 19.0598873, "lon": 72.834083, "tags": {"amenity": "restaurant", "cuisine": "lebanese", "name": "Arbab", "name:en": "Arbab", "name:hi": "\u0905\u0930\u094d\u092c\u093e\u092c", "name:mr": "\u0905\u0930\u094d\u092c\u093e\u092c", "outdoor_seating": "yes"}}, {"type": "node", "id": 11296371135, "lat": 19.0624232, "lon": 72.8308606, "tags": {"amenity": "restaurant", "name": "Miya Kebabs", "name:en": "Miya Kebabs"}}, {"type": "node", "id": 11298617853, "lat": 19.0629997, "lon": 72.8294247, "tags": {"amenity": "restaurant", "name": "Jhelum", "name:en": "Jhelum", "name:hi": "\u091d\u0947\u0932\u092e", "name:mr": "\u091d\u0947\u0932\u092e"}}, {"type": "node", "id": 11298645299, "lat": 19.0654365, "lon": 72.8305902, "tags": {"amenity": "restaurant", "name": "Sequel", "name:en": "Sequel"}}, {"type": "node", "id": 11298645321, "lat": 19.0655856, "lon": 72.8327487, "tags": {"amenity": "restaurant", "brand": "Pizza Hut", "brand:wikidata": "Q191615", "cuisine": "pizza", "name": "Pizza Hut"}}, {"type": "node", "id": 11298645405, "lat": 19.0664847, "lon": 72.8333221, "tags": {"amenity": "restaurant", "cuisine": "tex-mex;latin_american", "name": "Los Cavos"}}, {"type": "node", "id": 11304011166, "lat": 19.180372, "lon": 72.8359422}, {"type": "node", "id": 11304011167, "lat": 19.1803953, "lon": 72.8360344}, {"type": "node", "id": 11304011168, "lat": 19.180177, "lon": 72.8361034}, {"type": "node", "id": 11304024369, "lat": 19.1802633, "lon": 72.8359789}, {"type": "node", "id": 11304024370, "lat": 19.180282, "lon": 72.8360233, "tags": {"addr:city": "Mumbai", "addr:district": "Maharashtra", "addr:housenumber": "11107, Ganga Niwas", "addr:postcode": "400064", "addr:street": "Chincholi Bunder, Link Road Junction, Malad (W)", "amenity": "restaurant", "cuisine": "chinese", "delivery": "yes", "diet:halal": "yes", "diet:non-vegetarian": "yes", "name": "Tango Fast Food and Juice Center", "opening_hours": "12pm-12am", "phone": "+919221414317", "website": "http://zoma.to/r/34800", "website:menu": "https://www.zomato.com/mumbai/tango-fast-food-and-juice-centre-malad-west/menu"}}, {"type": "node", "id": 11339568160, "lat": 19.0514716, "lon": 72.8283149, "tags": {"amenity": "restaurant", "cuisine": "chinese", "name": "Dimsum Wu", "name:en": "Dimsum Wu"}}, {"type": "node", "id": 11341347607, "lat": 19.1300624, "lon": 72.8178585, "tags": {"addr:city": "Mumbai", "addr:housenumber": "A4 Vashveen CHSL", "addr:postcode": "400061", "addr:street": "Seven Bungalows Andheri west", "air_conditioning": "no", "amenity": "restaurant", "bar": "no", "cuisine": "Maharashtrian", "delivery": "yes", "email": "modernaaji1101@gmail.com", "name": "Modern Aaji", "opening_hours": "10:30 to 3:30,7:30 to 12:00 midnight", "phone": "+918605171819"}}, {"type": "node", "id": 11348865438, "lat": 19.1147115, "lon": 72.84361, "tags": {"addr:city": "Mumbai", "addr:district": "Maharashtra", "addr:postcode": "400058", "addr:street": "Viral Apartments, Behind Hotel Radhakrishna, Next to Hotel Golden Chariot, Swami Vivekananda Rd, Opp. Shoppers Stop, Andheri West", "amenity": "restaurant", "diet:vegan": "yes", "name": "Aharveda", "opening_hours": "Mo-Su 11:00-15:30", "phone": "02240722211", "website": "https://aharveda.com/"}}, {"type": "node", "id": 11348917628, "lat": 19.104092, "lon": 72.8525816, "tags": {"addr:city": "Mumbai", "addr:district": "Mumbai", "addr:housenumber": "Ground Floor", "addr:postcode": "400057", "addr:street": "Parvati Niwas, Paranjape B Scheme, Road 2, Besides Datta Mandir, Vile Parle East", "amenity": "restaurant", "cuisine": "pasta;pizza;sandwich;soup", "delivery": "only", "diet:vegan": "yes", "name": "The Bodhi Cafe", "opening_hours": "Mo-Su 09:15 1:30", "phone": "09550286477", "website": "https://thrivenow.in/the-bodhi-cafe/browse-menu/delivery"}}, {"type": "node", "id": 11364271006, "lat": 19.054425, "lon": 72.8375299, "tags": {"amenity": "restaurant", "diet:vegetarian": "yes", "name": "Sai Sagar"}}, {"type": "node", "id": 11364283705, "lat": 19.0540834, "lon": 72.8306392, "tags": {"amenity": "restaurant", "cuisine": "chinese", "name": "Meraki", "name:en": "Meraki", "website": "https://www.merakichinese.in/"}}, {"type": "node", "id": 11364283731, "lat": 19.0679012, "lon": 72.8340037, "tags": {"amenity": "restaurant", "cuisine": "chinese;indian", "name": "Sheetal Bukhara", "name:en": "Sheetal Bukhara", "name:hi": "\u0936\u0940\u0924\u0932 \u092c\u0941\u0916\u093e\u0930\u093e", "name:mr": "\u0936\u0940\u0924\u0932 \u092c\u0941\u0916\u093e\u0930\u093e", "opening_hours": "Mo-Su 11:30-01:30"}}, {"type": "node", "id": 11372185903, "lat": 19.0896644, "lon": 72.8276046, "tags": {"amenity": "restaurant", "name": "Little Italy", "name:en": "Little Italy"}}, {"type": "node", "id": 11372185915, "lat": 19.0979816, "lon": 72.8269836, "tags": {"amenity": "restaurant", "cuisine": "chinese", "name": "China Gate", "name:en": "China Gate"}}, {"type": "node", "id": 11372185940, "lat": 19.1009916, "lon": 72.8274055, "tags": {"amenity": "restaurant", "cuisine": "indian", "name": "Copper Chimney", "name:en": "Copper Chimney", "website": "https://www.copperchimney.in/"}}, {"type": "node", "id": 11372185966, "lat": 19.1026933, "lon": 72.8270756, "tags": {"amenity": "restaurant", "cuisine": "indian", "diet:vegetarian": "yes", "name": "The Class Thali"}}, {"type": "node", "id": 11372229080, "lat": 19.1032478, "lon": 72.8270016, "tags": {"amenity": "restaurant", "cuisine": "lebanese", "name": "Hit n Run", "name:en": "Hit n Run"}}, {"type": "node", "id": 11383276966, "lat": 19.1851499, "lon": 72.8336224, "tags": {"amenity": "restaurant", "cuisine": "indian", "name": "Copper Chimney", "name:en": "Copper Chimney"}}, {"type": "node", "id": 11383288454, "lat": 19.1150922, "lon": 72.8427403, "tags": {"amenity": "restaurant", "name": "Oasis Restaurant & Bar", "name:en": "Oasis Restaurant & Bar"}}, {"type": "node", "id": 11383288463, "lat": 19.116209, "lon": 72.8292168, "tags": {"amenity": "restaurant", "cuisine": "indian", "name": "Orange City Saoji", "name:en": "Orange City Saoji"}}, {"type": "node", "id": 11383288492, "lat": 19.1092531, "lon": 72.825488, "tags": {"amenity": "restaurant", "name": "Tanatan"}}, {"type": "node", "id": 11384605318, "lat": 19.0601618, "lon": 72.8437179, "tags": {"amenity": "restaurant", "cuisine": "chinese", "name": "DP's Spice", "name:en": "DP's Spice"}}, {"type": "node", "id": 11385106146, "lat": 19.0629944, "lon": 72.8292602, "tags": {"amenity": "restaurant", "cuisine": "seafood", "name": "Jaihind Lunch Home", "name:en": "Jaihind Lunch Home", "opening_hours": "Mo 11:30-16:00,19:30-00:00; We-Su 11:30-16:00,19:30-00:00"}}, {"type": "node", "id": 11385736905, "lat": 19.1091272, "lon": 72.8534556, "tags": {"amenity": "restaurant", "check_date": "2023-11-27", "name": "Jamie Oliver"}}, {"type": "node", "id": 11422979822, "lat": 19.1095946, "lon": 72.8813845, "tags": {"amenity": "restaurant", "name": "Bombay to Barcelona Cafe"}}, {"type": "node", "id": 11426727397, "lat": 19.0913756, "lon": 72.8278114, "tags": {"addr:street": "Juhu Tara Road", "amenity": "restaurant", "description": "North Indian Restaurant", "name": "Pritam Da Dhaba"}}, {"type": "node", "id": 11426734333, "lat": 19.1113189, "lon": 72.8267365, "tags": {"amenity": "restaurant", "name": "Punjab da Chulah"}}, {"type": "node", "id": 11426734643, "lat": 19.0913972, "lon": 72.8277925, "tags": {"addr:street": "Juhu Tara Road", "amenity": "restaurant", "name": "Grandmama's Cafe"}}, {"type": "node", "id": 11426738528, "lat": 19.1092999, "lon": 72.8254856, "tags": {"amenity": "restaurant", "name": "Yeda Republic"}}, {"type": "node", "id": 11426738573, "lat": 19.1090188, "lon": 72.825643, "tags": {"amenity": "restaurant", "name": "R-Adda"}}, {"type": "node", "id": 11432071328, "lat": 19.0805224, "lon": 72.8897014, "tags": {"amenity": "restaurant", "check_date": "2023-12-27", "internet_access": "no", "name": "Nityanand Family Restaurant", "wheelchair": "limited"}}, {"type": "node", "id": 11445670131, "lat": 19.1037873, "lon": 72.8867394, "tags": {"amenity": "restaurant", "name": "KFC"}},